[{"id_sch":10022007,"name":"โรงเรียนบดินทรเดชา (สิงห์ สิงหเสนี) 4","address":"87 ซอยสุวินทวงศ์96 ถนนสุวินทวงศ์ แขวงลำต้อยติ่ง เขตหนองจอก กรุงเทพฯ 10510","belong":"สังกัดสำนักงานเขตพื้นที่การศึกษามัธยมศึกษา เขต 2","tel":"0 2176 6010","fax":"0 2988 7634","url":"bodin4.ac.th\/mainpage","num_stu":1583,"class":30,"dcode":1003,"dname":"หนองจอก","lat":13.7872619,"lng":100.905156},{"id_sch":10022035,"name":"โรงเรียนนวมินทราชินูทิศ สตรีวิทยา 2","address":"200 ซอยนิมิตรใหม่64 ถนนนิมิตรใหม่ แขวงสามวาตะวันออก เขตคลองสามวา กรุงเทพฯ","belong":"สังกัดสำนักงานเขตพื้นที่การศึกษามัธยมศึกษา เขต 2","tel":"0 2993 2353","fax":"0 2993 3323-25","url":"www.nmrsw2.ac.th\/","num_stu":2644,"class":36,"dcode":1046,"dname":"คลองสามวา","lat":13.90171137,"lng":100.7410799},{"id_sch":10032019,"name":"โรงเรียนพิทยาลงกรณ์พิทยาคม","address":"16 ถนนเลียบคลองพิทยาลงกรณ์ แขวงท่าข้าม เขตบางขุนเทียน กรุงเทพฯ 10150","belong":"สังกัดสำนักงานเขตพื้นที่การศึกษามัธยมศึกษา เขต 1","tel":"0 2452 4740","fax":"0 2452 4793","url":"www.pkpk.ac.th","num_stu":395,"class":7,"dcode":1021,"dname":"บางขุนเทียน","lat":13.52826452,"lng":100.4180631},{"id_sch":10032039,"name":"โรงเรียนนวลนรดิศวิทยาคม รัช6งคลาภิเษก","address":"59 ซอยนวลนรดิศวิทยาคมฯ ถนนบางบอน 5 แขวงบางบอน เขตบางบอน กรุงเทพฯ 10150","belong":"สังกัดสำนักงานเขตพื้นที่การศึกษามัธยมศึกษา เขต 1","tel":"0 2429 3740","fax":"0 2429 3740","url":"www.ndr.ac.th","num_stu":629,"class":16,"dcode":1050,"dname":"บางบอน","lat":13.64560457,"lng":100.3460319},{"id_sch":10022010,"name":"โรงเรียนเทพศิรินทร์ร่มเกล้า","address":"2 ซอย ไอ ซี ดี 8 แขวงคลองสามประเวศ เขตลาดกระบัง กรุงเทพฯ 10520","belong":"สังกัดสำนักงานเขตพื้นที่การศึกษามัธยมศึกษา เขต 2","tel":"0 2737 8919 -20","fax":"0 2360 9287","url":"www.dsr.ac.th\/","num_stu":3181,"class":39,"dcode":1011,"dname":"ลาดกระบัง","lat":13.74622186,"lng":100.7578991},{"id_sch":10022009,"name":"โรงเรียนพรตพิทยพยัต","address":"4 ถนนหลวงพรต แขวงลาดกระบัง แขวงลาดกระบัง เขตลาดกระบัง กรุงเทพฯ 10520","belong":"สังกัดสำนักงานเขตพื้นที่การศึกษามัธยมศึกษา เขต 2","tel":"0 2326 4050","fax":"0 2326 9997","url":"www.prot.ac.th\/mainpage","num_stu":2902,"class":36,"dcode":1011,"dname":"ลาดกระบัง","lat":13.72596875,"lng":100.7853452},{"id_sch":10032021,"name":"โรงเรียนทวีธาภิเศก บางขุนเทียน","address":"694\/123 ถนนบางขุนเทียน - ชายทะเล แขวงท่าข้าม เขตบางขุนเทียน กรุงเทพฯ 10150","belong":"สังกัดสำนักงานเขตพื้นที่การศึกษามัธยมศึกษา เขต 1","tel":"0 2849 3310","fax":"0 2849 3044","url":"www.tpt.ac.th\/tpt\/index.html","num_stu":1249,"class":16,"dcode":1021,"dname":"บางขุนเทียน","lat":13.58212307,"lng":100.4197964},{"id_sch":10032027,"name":"โรงเรียนมัธยมวัดหนองแขม(สหราษฎร์บูรณะ)","address":"66 ถนนเลียบคลองภาษีเจริญฝั่งใต้ แขวงหนองแขม เขตหนองแขม กรุงเทพฯ 10160","belong":"สังกัดสำนักงานเขตพื้นที่การศึกษามัธยมศึกษา เขต 1","tel":"0 2429 3714","fax":"0 2811 2252","url":"www.watnongkhamschool.com\/produts.html","num_stu":2926,"class":42,"dcode":1023,"dname":"หนองแขม","lat":13.67545545,"lng":100.3392213},{"id_sch":10022004,"name":"โรงเรียนมัธยมวัดหนองจอก","address":"21 ถนนเลียบวารี แขวงกระทุ่มราย เขตหนองจอก กรุงเทพฯ 10530","belong":"สังกัดสำนักงานเขตพื้นที่การศึกษามัธยมศึกษา เขต 2","tel":"0 2989 5401","fax":"0 2989 5406","url":"www.nj.ac.th\/index1.html","num_stu":2676,"class":36,"dcode":1003,"dname":"หนองจอก","lat":13.85428687,"lng":100.8602938},{"id_sch":10022034,"name":"โรงเรียนนวมินทราชินูทิศ เบญจมราชาลัย","address":"333 ถนนไทยรามัญ แขวงสามวาตะวันตก เขตคลองสามวา กรุงเทพฯ 10510","belong":"สังกัดสำนักงานเขตพื้นที่การศึกษามัธยมศึกษา เขต 2","tel":"0 2181 1101","fax":"0 2181 1108","url":"www.nbr.ac.th\/","num_stu":2619,"class":39,"dcode":1046,"dname":"คลองสามวา","lat":13.89087324,"lng":100.6936842},{"id_sch":10022029,"name":"โรงเรียนศรีพฤฒา","address":"61 ถนนนักกีฬาแหลมทอง แขวงสะพานสูง เขตสะพานสูง กรุงเทพฯ 10250","belong":"สังกัดสำนักงานเขตพื้นที่การศึกษามัธยมศึกษา เขต 2","tel":"0 2368 2148","fax":"0 2368 2144","url":"www.sts.ac.th\/","num_stu":1620,"class":36,"dcode":1044,"dname":"สะพานสูง","lat":13.74478173,"lng":100.6950698},{"id_sch":10032035,"name":"โรงเรียนนวมินทราชินูทิศสตรีวิทยา พุทธมณฑ","address":"70 หมู่ 2 แขวงทวีวัฒนา เขตทวีวัฒนา กรุงเทพฯ 10170","belong":"สังกัดสำนักงานเขตพื้นที่การศึกษามัธยมศึกษา เขต 1","tel":"0 2441 3593","fax":"0 2441 3194","url":"www.satriwit3.ac.th\/","num_stu":3014,"class":44,"dcode":1048,"dname":"ทวีวัฒนา","lat":13.77356744,"lng":100.3555657},{"id_sch":10032034,"name":"โรงเรียนทีปังกรวิทยาพัฒน์ (ทวีวัฒนา)","address":"136\/1 ถนนเลียบคลองปทุม แขวงทวีวัฒนา เขตทวีวัฒนา กรุงเทพฯ 10170","belong":"สังกัดสำนักงานเขตพื้นที่การศึกษามัธยมศึกษา เขต 1","tel":"0 2806 7492","fax":"0 2806 7492","url":"www.dipangkorntawee.ac.th","num_stu":2012,"class":28,"dcode":1048,"dname":"ทวีวัฒนา","lat":13.75047129,"lng":100.3488205},{"id_sch":10032038,"name":"โรงเรียนศึกษานารีวิทยา","address":"1122 ถนนเอกชัย แขวงบางบอน เขตบางบอน กรุงเทพฯ 10150","belong":"สังกัดสำนักงานเขตพื้นที่การศึกษามัธยมศึกษา เขต 1","tel":"0 2450 3501-4","fax":"0 2892 3905","url":"www.snws.ac.th\/homepage","num_stu":2762,"class":39,"dcode":1050,"dname":"บางบอน","lat":13.63357865,"lng":100.3647553},{"id_sch":10022003,"name":"โรงเรียนสตรีเศรษฐบุตรบำเพ็ญ","address":"340 ถนนสีหบุรานุกิจ แขวงมีนบุรี เขตมีนบุรี กรุงเทพฯ 10510","belong":"สังกัดสำนักงานเขตพื้นที่การศึกษามัธยมศึกษา เขต 2","tel":"0 2540 7202","fax":"0 2540 7201","url":"www.sstb.ac.th","num_stu":2322,"class":33,"dcode":1010,"dname":"มีนบุรี","lat":13.81388594,"lng":100.733341},{"id_sch":10020007,"name":"โรงเรียนไทยรัฐวิทยา 75 เฉลิมพระเกียรติ","address":"455 วัชรพล-รามอินทรา ถนนวัชรพล แขวงคลองถนน เขตสายไหม กรุงเทพฯ 10220","belong":"สังกัดสำนักงานเขตพื้นที่การศึกษาประถมศึกษากรุงเทพมหานคร","tel":"0 2533 8660","fax":"0 2994 0936 กด2","url":"www.thairathwittaya75.com\/home.html","num_stu":723,"class":31,"dcode":1042,"dname":"สายไหม","lat":13.89136034,"lng":100.6462424},{"id_sch":10022001,"name":"โรงเรียนรัตนโกสินทร์สมโภช บางเขน","address":"580 ซอยวัชรพล ถนนวัชรพล แขวงท่าแร้ง เขตบางเขน กรุงเทพฯ 10220","belong":"สังกัดสำนักงานเขตพื้นที่การศึกษามัธยมศึกษา เขต 2","tel":"0 2948 0621","fax":"0 2948 1861","url":"www.rsb.ac.th\/mainpage","num_stu":2333,"class":33,"dcode":1005,"dname":"บางเขน","lat":13.87119593,"lng":100.6447401},{"id_sch":10022008,"name":"โรงเรียนมัธยมวัดบึงทองหลาง","address":"195 ซอยลาดพร้าว 101 แขวงคลองจั่น เขตบางกะปิ กรุงเทพฯ 10240","belong":"สังกัดสำนักงานเขตพื้นที่การศึกษามัธยมศึกษา เขต 2","tel":"0 2376 0463","fax":"0 2736 8808","url":"www.thonglang.ac.th\/","num_stu":1682,"class":30,"dcode":1006,"dname":"บางกะปิ","lat":13.79431139,"lng":100.6257955},{"id_sch":10022019,"name":"โรงเรียนราชดำริ","address":"163 ถนนเฉลิมพระเกียรติ ร.9 แขวงดอกไม้ เขตประเวศ กรุงเทพฯ 10250","belong":"สังกัดสำนักงานเขตพื้นที่การศึกษามัธยมศึกษา เขต 2","tel":"0 2337 4429","fax":"0 2337 5989","url":"http:\/\/schoolweb.eduzones.com\/rdschool\/","num_stu":2264,"class":36,"dcode":1032,"dname":"ประเวศ","lat":13.68226055,"lng":100.6792486},{"id_sch":10032031,"name":"โรงเรียนวิมุตยารามพิทยากร","address":"938 ถนนจรัญสนิทวงศ์ แขวงบางอ้อ เขตบางพลัด กรุงเทพฯ 10700","belong":"สังกัดสำนักงานเขตพื้นที่การศึกษามัธยมศึกษา เขต 1","tel":"0 2424 2598","fax":"0 2424 1137","url":"www.wimut.ac.th\/","num_stu":300,"class":8,"dcode":1025,"dname":"บางพลัด","lat":13.80994415,"lng":100.5133756},{"id_sch":10012021,"name":"โรงเรียนพระโขนงพิทยาลัย","address":"182 ซอยสุขุมวิท 62 ถนนสุขุมวิท แขวงบางจาก เขตพระโขนง กรุงเทพฯ 10260","belong":"สังกัดสำนักงานเขตพื้นที่การศึกษามัธยมศึกษา เขต 2","tel":"0 2311 1786","fax":"0 2311 5317","url":"www.prakanong.ac.th\/","num_stu":1535,"class":23,"dcode":1009,"dname":"พระโขนง","lat":13.69458712,"lng":100.5906711},{"id_sch":10012023,"name":"โรงเรียนนนทรีวิทยา","address":"139 ถนนพระราม 3 แขวงช่องนนทรี เขตยานนาวา กรุงเทพฯ 10120","belong":"สังกัดสำนักงานเขตพื้นที่การศึกษามัธยมศึกษา เขต 2","tel":"0 2286 2105","fax":"0 2287 0729","url":"www.nonsi.ac.th","num_stu":1662,"class":28,"dcode":1012,"dname":"ยานนาวา","lat":13.7067075,"lng":100.5466709},{"id_sch":10032009,"name":"โรงเรียนโพธิสารพิทยากร","address":"14\/2 ม.2 ถ.พุทธมณฑลสาย1 แขวงบางระมาด เขตตลิ่งชัน กทม. 10170","belong":"สังกัดสำนักงานเขตพื้นที่การศึกษามัธยมศึกษา เขต 1","tel":"0 2448 6130","fax":"0 2448 7108","url":"www.ps.ac.th","num_stu":2838,"class":41,"dcode":1019,"dname":"ตลิ่งชัน","lat":13.76788382,"lng":100.4271249},{"id_sch":10032036,"name":"โรงเรียนวัดพุทธบูชา","address":"218 ถนนพุทธบูชา แขวงบางมด เขตทุ่งครุ กรุงเทพ ฯ 10140","belong":"สังกัดสำนักงานเขตพื้นที่การศึกษามัธยมศึกษา เขต 1","tel":"0 2426 3222","fax":"0 2426 3222 ต่","url":"www.wpb.ac.th","num_stu":2087,"class":29,"dcode":1049,"dname":"ทุ่งครุ","lat":13.65086675,"lng":100.4747347},{"id_sch":10032020,"name":"โรงเรียนรัตนโกสินทร์สมโภชบางขุนเทียน","address":"88\/2527 ถนนพระราม 2 แขวงแสมดำ เขตบางขุนเทียน กรุงเทพฯ 10150","belong":"สังกัดสำนักงานเขตพื้นที่การศึกษามัธยมศึกษา เขต 1","tel":"0 2415 2312","fax":"0 2416 1801","url":"www.rst.ac.th\/cms","num_stu":3320,"class":42,"dcode":1021,"dname":"บางขุนเทียน","lat":13.64631348,"lng":100.4200038},{"id_sch":10022006,"name":"โรงเรียนเศรษฐบุตรบำเพ็ญ","address":"313 ถนนรามอินทรา แขวงมีนบุรี เขตมีนบุรี กรุงเทพฯ 10510","belong":"สังกัดสำนักงานเขตพื้นที่การศึกษามัธยมศึกษา เขต 2","tel":"0 2517 5026","fax":"0 2517 3637","url":"www.sbp.ac.th\/","num_stu":3410,"class":48,"dcode":1010,"dname":"มีนบุรี","lat":13.81441018,"lng":100.7140331},{"id_sch":10022027,"name":"โรงเรียนฤทธิยะวรรณาลัย","address":"171\/3151 แขวงคลองถนน เขตสายไหม กรุงเทพฯ 10220","belong":"สังกัดสำนักงานเขตพื้นที่การศึกษามัธยมศึกษา เขต 2","tel":"0 2523 3402 -5","fax":"0 2532 0135","url":"http:\/\/rittiya.ac.th\/","num_stu":2877,"class":49,"dcode":1042,"dname":"สายไหม","lat":13.90649016,"lng":100.6193862},{"id_sch":10022014,"name":"โรงเรียนนวมินทราชูทิศ กรุงเทพมหานคร","address":"115 ม.11 ซอยอมรวิวัฒน์ แขวงนวลจันทร์ เขตบึงกุ่ม กรุงเทพฯ 10230","belong":"สังกัดสำนักงานเขตพื้นที่การศึกษามัธยมศึกษา เขต 2","tel":"0 2944 1225-6","fax":"0 2510 5509","url":"www.nmk.ac.th\/","num_stu":2524,"class":39,"dcode":1027,"dname":"บึงกุ่ม","lat":13.82924304,"lng":100.6506979},{"id_sch":10022024,"name":"โรงเรียนลาดปลาเค้าพิทยาคม","address":"540 ถนนลาดปลาเค้า แขวงจรเข้บัว เขตลาดพร้าว กรุงเทพฯ 10230","belong":"สังกัดสำนักงานเขตพื้นที่การศึกษามัธยมศึกษา เขต 2","tel":"0 2570 7343","fax":"0 2570 7575","url":"www.lpp.ac.th\/","num_stu":1502,"class":24,"dcode":1038,"dname":"ลาดพร้าว","lat":13.84582957,"lng":100.6043862},{"id_sch":10022025,"name":"โรงเรียนสตรีวิทยา 2","address":"29 ซอยสุคนธสวัสดิ์ 3 ถนนสุคนธสวัสดิ์ แขวงลาดพร้าว เขตลาดพร้าว กรุงเทพฯ 10230","belong":"สังกัดสำนักงานเขตพื้นที่การศึกษามัธยมศึกษา เขต 2","tel":"0 2570 9939","fax":"0 2570 9693","url":"www.sw2.ac.th\/th\/","num_stu":4358,"class":54,"dcode":1038,"dname":"ลาดพร้าว","lat":13.82579968,"lng":100.6167085},{"id_sch":10022030,"name":"โรงเรียนเตรียมอุดมศึกษาน้อมเกล้า","address":"348 ถนนรามคำแหง แขวงสะพานสูง เขตสะพานสูง กรุงเทพฯ 10240","belong":"สังกัดสำนักงานเขตพื้นที่การศึกษามัธยมศึกษา เขต 2","tel":"0 2373 1473","fax":"0 2373 1312","url":"www.tun.ac.th\/","num_stu":2980,"class":36,"dcode":1044,"dname":"สะพานสูง","lat":13.78479081,"lng":100.6918531},{"id_sch":10022031,"name":"โรงเรียนนวมินทราชินูทิศ เตรียมอุดมศึกษาน","address":"248\/89 หมู่บ้านสัมมากร แขวงสะพานสูง เขตสะพานสูง กรุงเทพฯ 10240","belong":"สังกัดสำนักงานเขตพื้นที่การศึกษามัธยมศึกษา เขต 2","tel":"0 2372 0228","fax":"0 2373 0664","url":"www.ntun.ac.th\/","num_stu":3098,"class":40,"dcode":1044,"dname":"สะพานสูง","lat":13.75557448,"lng":100.6804636},{"id_sch":10022032,"name":"โรงเรียนบดินทรเดชา (สิงห์ สิงหเสนี)","address":"40 ซอยรามคำแหง 43\/1 แขวงพลับพลา เขตวังทองหลาง กรุงเทพฯ 10310","belong":"สังกัดสำนักงานเขตพื้นที่การศึกษามัธยมศึกษา เขต 2","tel":"0 2538 3964","fax":"0 2539 7091","url":"www.bodin.ac.th\/home","num_stu":4084,"class":48,"dcode":1045,"dname":"วังทองหลาง","lat":13.76737288,"lng":100.6151965},{"id_sch":10020008,"name":"โรงเรียนพระยาประเสริฐสุนทราศรัย","address":"70\/8 ลาดพร้าว94 ถนนลาดพร้าว แขวงวังทองหลาง เขตวังทองหลาง กรุงเทพฯ 10310","belong":"สังกัดสำนักงานเขตพื้นที่การศึกษาประถมศึกษากรุงเทพมหานคร","tel":"0 2539 8197","fax":"0 2314 7401","url":"www.prayaprasert.org\/","num_stu":1626,"class":47,"dcode":1045,"dname":"วังทองหลาง","lat":13.76456351,"lng":100.6094068},{"id_sch":10022005,"name":"โรงเรียนเทพลีลา","address":"281 ถนนรามคำแหง แขวงหัวหมาก เขตบางกะปิ กรุงเทพฯ 10240","belong":"สังกัดสำนักงานเขตพื้นที่การศึกษามัธยมศึกษา เขต 2","tel":"0 2318 0625","fax":"0 2314 1729","url":"www.tepleela.ac.th\/","num_stu":2014,"class":30,"dcode":1006,"dname":"บางกะปิ","lat":13.75867694,"lng":100.6152662},{"id_sch":10022020,"name":"โรงเรียนเตรียมอุดมศึกษาพัฒนาการ","address":"499 ถนนพัฒนาการ แขวงสวนหลวง เขตสวนหลวง กรุงเทพฯ 10250","belong":"สังกัดสำนักงานเขตพื้นที่การศึกษามัธยมศึกษา เขต 2","tel":"02722 7970","fax":"0 2321 3888","url":"www.tup.ac.th","num_stu":4195,"class":49,"dcode":1034,"dname":"สวนหลวง","lat":13.7294182,"lng":100.6466685},{"id_sch":10020005,"name":"โรงเรียนบ้านหนองบอน (นัยนานนท์อนุสรณ์)","address":"141 ถนนเฉลิมพระเกียรติร.9 แขวงหนองบอน เขตประเวศ กรุงเทพฯ 10250","belong":"สังกัดสำนักงานเขตพื้นที่การศึกษาประถมศึกษากรุงเทพมหานคร","tel":"0 2393 0308","fax":"0 2383 8805","url":"www.bannongbon.ac.th","num_stu":990,"class":41,"dcode":1032,"dname":"ประเวศ","lat":13.67706697,"lng":100.6585705},{"id_sch":10020006,"name":"โรงเรียนวัดมหาบุศย์ (พิทักษ์ถาวรคุณ)","address":"711 ซอยอ่อนนุช 7 ถนนสุขุมวิท 77 แขวงสวนหลวง เขตสวนหลวง กรุงเทพฯ 10250","belong":"สังกัดสำนักงานเขตพื้นที่การศึกษาประถมศึกษากรุงเทพมหานคร","tel":"0 2311 1483","fax":"0 2311 1483","url":"www.mahabud.ac.th","num_stu":463,"class":18,"dcode":1034,"dname":"สวนหลวง","lat":13.71389634,"lng":100.6071749},{"id_sch":10022023,"name":"โรงเรียนดอนเมืองจาตุรจินดา","address":"153\/34 ถนนเชิดวุฒากาศ แขวงดอนเมือง เขตดอนเมือง กรุงเทพฯ 10210","belong":"สังกัดสำนักงานเขตพื้นที่การศึกษามัธยมศึกษา เขต 2","tel":"02 565 3725","fax":"0 2565 3883","url":"www.dmj.ac.th\/","num_stu":1229,"class":14,"dcode":1036,"dname":"ดอนเมือง","lat":13.91489084,"lng":100.592767},{"id_sch":10022018,"name":"โรงเรียนสารวิทยา","address":"2398\/96 ถนนพหลโยธิน แขวงเสนานิคม เขตจตุจักร กรุงเทพฯ 10900","belong":"สังกัดสำนักงานเขตพื้นที่การศึกษามัธยมศึกษา เขต 2","tel":"0 2579 3646","fax":"0 2579 3340","url":"www.srv.ac.th","num_stu":3018,"class":37,"dcode":1030,"dname":"จตุจักร","lat":13.85112103,"lng":100.584385},{"id_sch":10022017,"name":"โรงเรียนหอวัง","address":"16\/9 ซอยวิภาวดีรังสิต 28 แขวงจตุจักร เขตจตุจักร กรุงเทพฯ 109","belong":"สังกัดสำนักงานเขตพื้นที่การศึกษามัธยมศึกษา เขต 2","tel":"0 2512 6000","fax":"0 2511 1045","url":"www.horwang.ac.th\/index2.php","num_stu":3731,"class":45,"dcode":1030,"dname":"จตุจักร","lat":13.8196361,"lng":100.55929},{"id_sch":10012027,"name":"โรงเรียนสุรศักดิ์มนตรี","address":"54 ถนนวิภาวดีรังสิต แขวงดินแดง เขตดินแดง กรุงเทพฯ 10400","belong":"สังกัดสำนักงานเขตพื้นที่การศึกษามัธยมศึกษา เขต 2","tel":"0 2277 0663","fax":"0 2277 3691","url":"www.surasak.ac.th","num_stu":2069,"class":38,"dcode":1026,"dname":"ดินแดง","lat":13.77609026,"lng":100.5556715},{"id_sch":10020001,"name":"โรงเรียนวัดอุทัยธาราม","address":"ถนนพระราม 9 แขวง บางกะปิ เขต ห้วยขวาง กรุงเทพฯ 10310","belong":"สังกัดสำนักงานเขตพื้นที่การศึกษาประถมศึกษากรุงเทพมหานคร","tel":"0 2252 7011","fax":"0 2255 5971","url":"www.facebook.com\/โรงเรียนวัดอุทัยธาราม-1450441868538063\/","num_stu":250,"class":13,"dcode":1017,"dname":"ห้วยขวาง","lat":13.74958053,"lng":100.5695795},{"id_sch":10012041,"name":"โรงเรียนมักกะสันพิทยา","address":"846\/17 ถนนเพชรบุรีตัดใหม่ แขวงมักกะสัน เขตราชเทวี กรุงเทพฯ 10400","belong":"สังกัดสำนักงานเขตพื้นที่การศึกษามัธยมศึกษา เขต 1","tel":"0 2252 8642","fax":"0 2251 4393","url":"www.makkasan.ac.th\/","num_stu":248,"class":6,"dcode":1037,"dname":"ราชเทวี","lat":13.74910879,"lng":100.552719},{"id_sch":10010012,"name":"โรงเรียนอนุบาลสามเสน","address":"302\/342 ถนนพระราม6 แขวงสามเสนใน เขตพญาไท กรุงเทพฯ 10400","belong":"สังกัดสำนักงานเขตพื้นที่การศึกษาประถมศึกษากรุงเทพมหานคร","tel":"0 2279 0415","fax":"0 2278 0713","url":"www.abss.ac.th\/","num_stu":1148,"class":33,"dcode":1014,"dname":"พญาไท","lat":13.78876038,"lng":100.5374338},{"id_sch":10012026,"name":"โรงเรียนสามเสนวิทยาลัย","address":"132\/11 ถนนพระราม 6 สามเสนใน เขตพญาไท กรุงเทพฯ 10400","belong":"สังกัดสำนักงานเขตพื้นที่การศึกษามัธยมศึกษา เขต 1","tel":"0 2278 2997","fax":"0 2278 2997","url":"www.samsenwit.ac.th","num_stu":3232,"class":36,"dcode":1014,"dname":"พญาไท","lat":13.78456249,"lng":100.5336791},{"id_sch":10012005,"name":"โรงเรียนวัดราชาธิวาส","address":"4 ซอยสามเสน9 ถนนสามเสน แขวงวชิรพยาบาล เขตดุสิต กรุงเทพฯ","belong":"สังกัดสำนักงานเขตพื้นที่การศึกษามัธยมศึกษา เขต 1","tel":"0 2266 8721","fax":"0 2243 2161","url":"https:\/\/sites.google.com\/site\/rajaschoolsite\/home","num_stu":795,"class":21,"dcode":1002,"dname":"ดุสิต","lat":13.77487197,"lng":100.5044563},{"id_sch":10012024,"name":"โรงเรียนเจ้าพระยาวิทยาคม","address":"786 ถนนพระรามที่3 แขวงบางโพงพาง เขตยานนาวา กรุงเทพฯ 10120","belong":"สังกัดสำนักงานเขตพื้นที่การศึกษามัธยมศึกษา เขต 2","tel":"0 2295 1338","fax":"0 2295 1338","url":"www.chaopraya.ac.th","num_stu":329,"class":8,"dcode":1012,"dname":"ยานนาวา","lat":13.67342872,"lng":100.5358781},{"id_sch":10010009,"name":"โรงเรียนวัดด่าน","address":"872\/5 ถนนพระราม 3 ซอยพระราม3 34 แขวงบางโพงพาง เขตยานนาวา กรุงเทพ 10120","belong":"สังกัดสำนักงานเขตพื้นที่การศึกษาประถมศึกษากรุงเทพมหานคร","tel":"0 2284 3047","fax":"0 2294 8990","url":"www.watdanschool.com","num_stu":333,"class":22,"dcode":1012,"dname":"ยานนาวา","lat":13.67244093,"lng":100.5406509},{"id_sch":10032029,"name":"โรงเรียนแจงร้อนวิทยา","address":"2\/3 ซ.ราษฏร์บูรณะ37 ถนนราษฏร์บุรณะ เขตราษฏร์บูรณะ กรุงเทพฯ 10140","belong":"สังกัดสำนักงานเขตพื้นที่การศึกษามัธยมศึกษา เขต 1","tel":"0 2462 5422","fax":"0 2462 5422","url":"www.chaengron.ac.th\/","num_stu":282,"class":10,"dcode":1024,"dname":"ราษฎร์บูรณะ","lat":13.67536825,"lng":100.5189182},{"id_sch":10032017,"name":"โรงเรียนมัธยมวัดนายโรง","address":"685\/2 ถนนบรมราชชนนี แขวงอรุณอมรินทร์ เขตบางกอกน้อย กรุงเทพฯ 10700","belong":"สังกัดสำนักงานเขตพื้นที่การศึกษามัธยมศึกษา เขต 1","tel":"0 2424 1826","fax":"0 2433 6735","url":"www.nairong.ac.th\/","num_stu":975,"class":18,"dcode":1020,"dname":"บางกอกน้อย","lat":13.77507672,"lng":100.4720884},{"id_sch":10032006,"name":"โรงเรียนทีปังกรวิทยาพัฒน์(วัดน้อยใน)","address":"12 ซอยชัยพฤกษ์ 20 เขตตลิ่งชัน แขวงตลิ่งชัน กรุงเทพฯ 10170","belong":"สังกัดสำนักงานเขตพื้นที่การศึกษามัธยมศึกษา เขต 1","tel":"0 2424 7882","fax":"0 2424 3048","url":"www.dpwatnoinai.ac.th","num_stu":582,"class":12,"dcode":1019,"dname":"ตลิ่งชัน","lat":13.79187394,"lng":100.4657285},{"id_sch":10032012,"name":"โรงเรียนมหรรณพาราม","address":"68\/5 ม.2 ถนนฉิมพลี แขวงฉิมพลี เขตตลิ่งชัน กรุงเทพฯ 10170","belong":"สังกัดสำนักงานเขตพื้นที่การศึกษามัธยมศึกษา เขต 1","tel":"0 2448 6258","fax":"0 2448 6482","url":"www.mh.ac.th\/","num_stu":1407,"class":21,"dcode":1019,"dname":"ตลิ่งชัน","lat":13.77781373,"lng":100.4465055},{"id_sch":10032025,"name":"โรงเรียนไชยฉิมพลีวิทยาคม","address":"40 ซอยบางแวก 69 แขวงบางแวก เขตภาษีเจริญ กรุงเทพฯ 10160","belong":"สังกัดสำนักงานเขตพื้นที่การศึกษามัธยมศึกษา เขต 1","tel":"0 2410 1663","fax":"0 2410 2396","url":"www.chaichimplee.ac.th\/","num_stu":324,"class":6,"dcode":1022,"dname":"ภาษีเจริญ","lat":13.73544074,"lng":100.4333088},{"id_sch":10032042,"name":"โรงเรียนบางมดวิทยา(สีสุกหวาดจวนอุปถัมภ์)","address":"9 ถนนพระราม 2 ซอย 28 แยก 2 แขวงบางมด เขตจอมทอง กรุงเทพฯ 10150","belong":"สังกัดสำนักงานเขตพื้นที่การศึกษามัธยมศึกษา เขต 1","tel":"0 2468 3877","fax":"0 2476 0629","url":"www.bangmodwittaya.ac.th\/mainpage","num_stu":2230,"class":30,"dcode":1035,"dname":"จอมทอง","lat":13.68109698,"lng":100.4652713},{"id_sch":10032040,"name":"โรงเรียนมัธยมวัดสิงห์","address":"35 หมู่ 3 ถนนเอกชัย แขวงบางขุนเทียน เขตจอมทอง กรุงเทพฯ 10150","belong":"สังกัดสำนักงานเขตพื้นที่การศึกษามัธยมศึกษา เขต 1","tel":"0 2415 1681","fax":"0 2415 0683","url":"www.mws.ac.th\/mainmws\/","num_stu":3031,"class":48,"dcode":1035,"dname":"จอมทอง","lat":13.68510464,"lng":100.4462885},{"id_sch":10030009,"name":"โรงเรียนราชวินิตประถมบางแค","address":"220 ซอยเพชรเกษม 62\/4 ถ.เพชรเกษม แขวงบางแคเหนือ เขตบางแค กรุงเทพฯ10160","belong":"สังกัดสำนักงานเขตพื้นที่การศึกษาประถมศึกษากรุงเทพมหานคร","tel":"0 2413 0607","fax":"0 2413 1699","url":"www.rnk.ac.th\/","num_stu":1157,"class":44,"dcode":1040,"dname":"บางแค","lat":13.71627643,"lng":100.4223928},{"id_sch":10022021,"name":"โรงเรียนดอนเมืองทหารอากาศบำรุง","address":"337 ถนนเชิดวุฒิกาศ แขวงสีกัน เขตดอนเมือง กรุงเทพฯ 10210","belong":"สังกัดสำนักงานเขตพื้นที่การศึกษามัธยมศึกษา เขต 2","tel":"0 2566 2718","fax":"0 2566 4675","url":"www.donschool.ac.th\/","num_stu":2623,"class":38,"dcode":1036,"dname":"ดอนเมือง","lat":13.93133708,"lng":100.6058632},{"id_sch":10022022,"name":"โรงเรียนสีกัน (วัฒนานันท์อุปถัมภ์)","address":"567 ถนนสรงประภา แขวงสีกัน เขตดอนเมือง กรุงเทพฯ 10210","belong":"สังกัดสำนักงานเขตพื้นที่การศึกษามัธยมศึกษา เขต 2","tel":"0 2566 1456","fax":"0 2566 1455","url":"www.seekan.ac.th\/","num_stu":1916,"class":27,"dcode":1036,"dname":"ดอนเมือง","lat":13.92451739,"lng":100.5941378},{"id_sch":10022015,"name":"โรงเรียนบดินทรเดชา (สิงห์ สิงหเสนี)2","address":"333 ถนนนวมินทร์ แขวงคลองกุ่ม เขตบึงกุ่ม กรุงเทพฯ 10240","belong":"สังกัดสำนักงานเขตพื้นที่การศึกษามัธยมศึกษา เขต 2","tel":"0 2947 9161","fax":"0 2509 5577","url":"www.bodin2.ac.th\/","num_stu":3744,"class":46,"dcode":1027,"dname":"บึงกุ่ม","lat":13.81445146,"lng":100.6553386},{"id_sch":10022011,"name":"โรงเรียนรัตนโกสินทร์สมโภชลาดกระบัง","address":"121 ซอยเคหะร่มเกล้า31 ถนนร่มเกล้า แขวงคลองสองต้นนุ่น เขตลาดกระบัง กรุงเทพ","belong":"สังกัดสำนักงานเขตพื้นที่การศึกษามัธยมศึกษา เขต 2","tel":"0 2543 9521","fax":"0 2543 9522","url":"www.rsl.ac.th\/","num_stu":2467,"class":39,"dcode":1011,"dname":"ลาดกระบัง","lat":13.75940296,"lng":100.7306459},{"id_sch":10022002,"name":"โรงเรียนบางกะปิ","address":"69 ถนนเสรีไทย แขวงคลองจั่น เขตบางกะปิ กรุงเทพฯ 10240","belong":"สังกัดสำนักงานเขตพื้นที่การศึกษามัธยมศึกษา เขต 2","tel":"0 2377 6707","fax":"0 2377 0312","url":"bangkapi.ac.th\/","num_stu":3231,"class":45,"dcode":1006,"dname":"บางกะปิ","lat":13.77144358,"lng":100.6515028},{"id_sch":10022033,"name":"โรงเรียนนวมินทราชินูทิศ บดินทรเดชา","address":"5\/23 ซอยลาดพร้าว 69 แขวงสะพาน2 เขตวังทองหลาง กรุงเทพฯ 10310","belong":"สังกัดสำนักงานเขตพื้นที่การศึกษามัธยมศึกษา เขต 2","tel":"0 2530 2326","fax":"0 2530 2325","url":"www.bodin3.ac.th\/","num_stu":2347,"class":33,"dcode":1045,"dname":"วังทองหลาง","lat":13.79181151,"lng":100.6059494},{"id_sch":10012022,"name":"โรงเรียนวชิรธรรมสาธิต","address":"1253 วชิรธรรมสาธิต 57 ถ.สุขุมวิท101\/1 แขวงบางจาก เขตพระโขนง กรุงเทพฯ 10260","belong":"สังกัดสำนักงานเขตพื้นที่การศึกษามัธยมศึกษา เขต 2","tel":"0 2746 2833","fax":"0 2393 7794","url":"www.wt.ac.th\/","num_stu":3169,"class":42,"dcode":1009,"dname":"พระโขนง","lat":13.69130133,"lng":100.6330169},{"id_sch":10010018,"name":"โรงเรียนอนุบาลพิบูลเวศม์","address":"259\/444 ถนนสุขุมวิท 71 แขวงพระโขนงเหนือ เขตวัฒนา กรุงเทพฯ 10110","belong":"สังกัดสำนักงานเขตพื้นที่การศึกษาประถมศึกษากรุงเทพมหานคร","tel":"0 2391 2625","fax":"0 2382 3249","url":"www.pbw.ac.th\/pbw.hml","num_stu":1197,"class":46,"dcode":1039,"dname":"วัฒนา","lat":13.720669,"lng":100.5928438},{"id_sch":10012043,"name":"โรงเรียนสิริรัตนาธร","address":"47 ซอยอุดมสุข30 ถนนอุดมสุข แขวงบางนา เขตบางนา กรุงเทพฯ 10260","belong":"สังกัดสำนักงานเขตพื้นที่การศึกษามัธยมศึกษา เขต 2","tel":"0 2396 1984-5","fax":"0 2396 1984-5 ต่","url":"www.srt.ac.th\/index1.html","num_stu":2679,"class":40,"dcode":1047,"dname":"บางนา","lat":13.67577443,"lng":100.6244609},{"id_sch":10022026,"name":"โรงเรียนราชวินิตบางเขน","address":"22\/18 ซอยชินเขต 1\/22 ถนนงามวงศ์วาน แขวงทุ่งสองห้อง เขตหลักสี่ กรุงเทพฯ 10210","belong":"สังกัดสำนักงานเขตพื้นที่การศึกษามัธยมศึกษา เขต 2","tel":"0 2523 7612","fax":"0 2591 1445","url":"www.rvb.ac.th\/","num_stu":1848,"class":22,"dcode":1041,"dname":"หลักสี่","lat":13.85846278,"lng":100.5544605},{"id_sch":10012035,"name":"โรงเรียนโยธินบูรณะ2(สุวรรณสุทธาราม)","address":"279\/1 ซอยกรุงเทพ-นนทบุรี 56 แขวงบางซื่อ เขตบางซื่อ กรุงเทพฯ 10800","belong":"สังกัดสำนักงานเขตพื้นที่การศึกษามัธยมศึกษา เขต 1","tel":"0 2587 0978","fax":"0 2585 6572","url":"www.ssw.ac.th","num_stu":315,"class":7,"dcode":1029,"dname":"บางซื่อ","lat":13.8334569,"lng":100.5291609},{"id_sch":10020003,"name":"โรงเรียนพิบูลอุปถัมภ์","address":"1128 ซ.ลาดพร้าว 48 ถนนลาดพร้าว แขวงสามเสนนอก เขตห้วยขวาง กรุงเทพฯ 10310","belong":"สังกัดสำนักงานเขตพื้นที่การศึกษาประถมศึกษากรุงเทพมหานคร","tel":"0 2511 4049","fax":"0 2939 9871","url":"www.facebook.com\/pg\/PiboolUppathamSchool\/about\/?ref=page_internal","num_stu":1400,"class":41,"dcode":1017,"dname":"ห้วยขวาง","lat":13.79702347,"lng":100.5884124},{"id_sch":10022012,"name":"โรงเรียนจันทร์หุ่นบำเพ็ญ","address":"568 ถนนประชาราษฎร์บำเพ็ญ แขวงสามเสนนอก เขตห้วยขวาง กรุงเทพฯ 10310","belong":"สังกัดสำนักงานเขตพื้นที่การศึกษามัธยมศึกษา เขต 2","tel":"0 2645 2703-4","fax":"0 2276 2809","url":"www.chanhun.ac.th\/","num_stu":675,"class":15,"dcode":1017,"dname":"ห้วยขวาง","lat":13.77927541,"lng":100.5848891},{"id_sch":10012028,"name":"โรงเรียนเตรียมอุดมศึกษาน้อมเกล้ากุนนที","address":"199 ซอยรัชดาภิเษก15 ถนนรัชดาภิเษก แขวงดินแดง เขตดินแดง กรุงเทพฯ 10400","belong":"สังกัดสำนักงานเขตพื้นที่การศึกษามัธยมศึกษา เขต 2","tel":"0 2275 6661-2","fax":"0 2756 6663","url":"www.kunnatee.ac.th","num_stu":573,"class":12,"dcode":1026,"dname":"ดินแดง","lat":13.7823201,"lng":100.5724429},{"id_sch":10022013,"name":"โรงเรียนเตรียมอุดมศึกษาพัฒนาการ รัชดา","address":"170 ถนนรัชดาภิเษก แขวงห้วยขวาง เขตห้วยขวาง กทม. 10310","belong":"สังกัดสำนักงานเขตพื้นที่การศึกษามัธยมศึกษา เขต 2","tel":"0 2645 2703-4","fax":"0 2246 9087","url":"www.tupr.ac.th\/","num_stu":2712,"class":34,"dcode":1017,"dname":"ห้วยขวาง","lat":13.77306998,"lng":100.5743416},{"id_sch":10012029,"name":"โรงเรียนพิบูลประชาสรรค์","address":"4641 ถนนดินแดง แขวงดินแดง เขตดินแดง กรุงเทพฯ 10400","belong":"สังกัดสำนักบริหารการศึกษาพิเศษ","tel":"0 2245 0448","fax":"0 2245 3196","url":"www.pbps.ac.th\/","num_stu":0,"class":64,"dcode":1026,"dname":"ดินแดง","lat":13.76366893,"lng":100.5501702},{"id_sch":10012008,"name":"โรงเรียนโยธินบูรณะ","address":"1162 ถนนสามเสน แขวงนครไชยศรี เขตดุสิต กรุงเทพฯ 10300","belong":"สังกัดสำนักงานเขตพื้นที่การศึกษามัธยมศึกษา เขต 1","tel":"0 2241 2630","fax":"0 2241 2603","url":"www.yothinburana.ac.th","num_stu":3631,"class":45,"dcode":1002,"dname":"ดุสิต","lat":13.79667647,"lng":100.5203656},{"id_sch":10012011,"name":"โรงเรียนวัดน้อยนพคุณ","address":"2\/1 ถ.พระราม5 แขวงถนนนครไชยศรี เขตดุสิต กรุงเทพฯ 10300","belong":"สังกัดสำนักงานเขตพื้นที่การศึกษามัธยมศึกษา เขต 1","tel":"0 2243 5305","fax":"0 2243 7088","url":"www.wnk.ac.th","num_stu":388,"class":9,"dcode":1002,"dname":"ดุสิต","lat":13.78445427,"lng":100.5205362},{"id_sch":10012016,"name":"โรงเรียนเศรษฐเสถียร ในพระราชูปถัมภ์","address":"137 ถนนพระราม 5 แขวงถนนนครไชยศรี เขตดุสิต กรุงเทพฯ 10300","belong":"สังกัดสำนักบริหารการศึกษาพิเศษ","tel":"0 2241 4455","fax":"0 2241 8982","url":"www.setsatian.ac.th","num_stu":0,"class":21,"dcode":1002,"dname":"ดุสิต","lat":13.78200019,"lng":100.5227122},{"id_sch":10010005,"name":"โรงเรียนทีปังกรวิทยาพัฒน์(วัดโบสถ์)","address":"658\/1 ถ.สามเสน แขวงดุสิต เขตดุสิต กรุงเทพฯ 10300","belong":"สังกัดสำนักงานเขตพื้นที่การศึกษาประถมศึกษากรุงเทพมหานคร","tel":"0 2243 8565","fax":"0 2241 1581","url":"www.tp-school.ac.th\/index.php","num_stu":394,"class":17,"dcode":1002,"dname":"ดุสิต","lat":13.78230853,"lng":100.5108206},{"id_sch":10012040,"name":"โรงเรียนสันติราษฎร์วิทยาลัย","address":"332 ถนนศรีอยุธยา แขวงทุ่งพญาไท เขตราชเทวี กรุงเทพฯ 10400","belong":"สังกัดสำนักงานเขตพื้นที่การศึกษามัธยมศึกษา เขต 1","tel":"0 2354 4990","fax":"0 2354 4998","url":"https:\/\/www.str.ac.th\/","num_stu":1682,"class":30,"dcode":1037,"dname":"ราชเทวี","lat":13.75798551,"lng":100.5324701},{"id_sch":10012039,"name":"โรงเรียนศรีอยุธยา ในพระอุปถัมภ์ฯ","address":"497 ถนนศรีอยุธยา แขวงถนนพญาไท เขตราชเทวี กรุงเทพฯ 10400","belong":"สังกัดสำนักงานเขตพื้นที่การศึกษามัธยมศึกษา เขต 1","tel":"0 2245 1717","fax":"0 2245 6102","url":"www.sriayudhya.ac.th\/","num_stu":2901,"class":36,"dcode":1037,"dname":"ราชเทวี","lat":13.75837979,"lng":100.5388257},{"id_sch":10012014,"name":"โรงเรียนมัธยมวัดมกุฏกษัตริย์","address":"330\/3 ถนนกรุงเกษม แขวงบางขุนพรหม เขตพระนคร กรุงเทพฯ 10200","belong":"สังกัดสำนักงานเขตพื้นที่การศึกษามัธยมศึกษา เขต 1","tel":"0 2281 3535","fax":"0 2282 9493","url":"www.makut.ac.th","num_stu":464,"class":11,"dcode":1001,"dname":"พระนคร  ","lat":13.76466615,"lng":100.5074705},{"id_sch":10012002,"name":"โรงเรียนมัธยมวัดเบญจมบพิตร","address":"69 ถนนศรีอยุธยา แขวงดุสิต เขตดุสิต กรุงเทพฯ 10300","belong":"สังกัดสำนักงานเขตพื้นที่การศึกษามัธยมศึกษา เขต 1","tel":"0 2280 7459","fax":"0 2281 9208","url":"www.mwbb.ac.th\/","num_stu":422,"class":9,"dcode":1002,"dname":"ดุสิต","lat":13.76593562,"lng":100.5127222},{"id_sch":10012013,"name":"โรงเรียนราชวินิต มัธยม","address":"181 ถนนพิษณุโลก แขวงสวนจิตรลดา เขตดุสิต กรุงเทพฯ 10300","belong":"สังกัดสำนักงานเขตพื้นที่การศึกษามัธยมศึกษา เขต 1","tel":"0 2282 0117","fax":"0 2281 2638","url":"www.rnm.ac.th","num_stu":2150,"class":30,"dcode":1002,"dname":"ดุสิต","lat":13.7625514,"lng":100.5147627},{"id_sch":10010004,"name":"โรงเรียนราชวินิต","address":"291\/1 ถนนนครราชสีมา แขวงดุสิต เขตดุสิต กรุงเทพฯ 10300","belong":"สังกัดสำนักงานเขตพื้นที่การศึกษาประถมศึกษากรุงเทพมหานคร","tel":"0 2281 2156","fax":"0 2282 9828","url":"www.rachawinit.ac.th","num_stu":2493,"class":72,"dcode":1002,"dname":"ดุสิต","lat":13.77190595,"lng":100.5075909},{"id_sch":10012015,"name":"โรงเรียนวัดสังเวช","address":"108 ถนนลำพู แขวงวัดสามพระยา เขตพระนคร กรุงเทพฯ 10200","belong":"สังกัดสำนักงานเขตพื้นที่การศึกษามัธยมศึกษา เขต 1","tel":"0 2629 2509","fax":"0 2282 4444","url":"www.watsw.ac.th","num_stu":185,"class":3,"dcode":1001,"dname":"พระนคร  ","lat":13.76416941,"lng":100.4970265},{"id_sch":10012042,"name":"โรงเรียนมัธยมวัดธาตุทอง","address":"1325 ถนนสุขุมวิท แขวงพระโขนงเหนือ เขตวัฒนา กรุงเทพ 10110","belong":"สังกัดสำนักงานเขตพื้นที่การศึกษามัธยมศึกษา เขต 2","tel":"0 2391 1300","fax":"0 2390 2561","url":"www.mtt.ac.th","num_stu":1431,"class":24,"dcode":1039,"dname":"วัฒนา","lat":13.72062525,"lng":100.5855948},{"id_sch":10010016,"name":"โรงเรียนดาราคาม","address":"932 ถนนสุขุมวิท แขวงพระโขนง เขตคลองเตย กรุงเทพ 10110","belong":"สังกัดสำนักงานเขตพื้นที่การศึกษาประถมศึกษากรุงเทพมหานคร","tel":"0 2391 2422","fax":"-","url":"www.darakam.ac.th\/","num_stu":323,"class":16,"dcode":1033,"dname":"คลองเตย","lat":13.71837206,"lng":100.5831573},{"id_sch":10012037,"name":"โรงเรียนปทุมคงคา","address":"920 ถนนสุขุมวิท แขวงพระโขนง เขตคลองเตย กรุงเทพฯ 10110","belong":"สังกัดสำนักงานเขตพื้นที่การศึกษามัธยมศึกษา เขต 2","tel":"0 2392 2510","fax":"0 2390 2288","url":"www.patumkongka.ac.th\/","num_stu":1441,"class":25,"dcode":1033,"dname":"คลองเตย","lat":13.71818547,"lng":100.5812422},{"id_sch":10010015,"name":"โรงเรียนสายน้ำทิพย์","address":"293 ถนนสุขุมวิท22 แขวงคลองตัน เขตคลองเตย กรุงเทพฯ 10110","belong":"สังกัดสำนักงานเขตพื้นที่การศึกษาประถมศึกษากรุงเทพมหานคร","tel":"0 2258 2232","fax":"0 2261 4558","url":"www.sainamtip.ac.th","num_stu":828,"class":43,"dcode":1033,"dname":"คลองเตย","lat":13.72792192,"lng":100.5654317},{"id_sch":10012038,"name":"โรงเรียนสายน้ำผึ้ง ในพระอุปถัมภ์ฯ","address":"186 ถนนสุขุมวิท22 แขวงคลองตัน เขตคลองเตย กรุงเทพฯ 10110","belong":"สังกัดสำนักงานเขตพื้นที่การศึกษามัธยมศึกษา เขต 2","tel":"0 2258 2234","fax":"0 2258 3347","url":"www.sainampeung.ac.th\/","num_stu":2329,"class":36,"dcode":1033,"dname":"คลองเตย","lat":13.72717081,"lng":100.5641415},{"id_sch":10010008,"name":"โรงเรียนประถมนนทรี","address":"66\/1 พระรามที่ 3 ซอย 79 แขวงช่องนนทรี เขตยานนาวา กรุงเทพฯ 10120","belong":"สังกัดสำนักงานเขตพื้นที่การศึกษาประถมศึกษากรุงเทพมหานคร","tel":"0 2249 1446","fax":"0 2240 0697","url":"www.prathomnonsee.ac.th\/","num_stu":333,"class":22,"dcode":1012,"dname":"ยานนาวา","lat":13.71265583,"lng":100.5523589},{"id_sch":10012033,"name":"โรงเรียนโสตศึกษาทุ่งมหาเมฆ","address":"55\/1 ถนนอาคารสงเคราะห์สาย 2 แขวงทุ่งมหาเมฆ เขตสาทร กรุงเทพฯ 10120","belong":"สังกัดสำนักบริหารการศึกษาพิเศษ","tel":"0 2286 0733","fax":"0 2286 6129","url":"www.sotthung.net\/","num_stu":0,"class":27,"dcode":1028,"dname":"สาทร","lat":13.71588197,"lng":100.5351367},{"id_sch":10032028,"name":"โรงเรียนบางปะกอกวิทยาคม","address":"51 ซอยสุขสวัสดิ์ 19 แขวงบางปะกอก เขตราษฎร์บูรณะ กรุงเทพฯ 10140","belong":"สังกัดสำนักงานเขตพื้นที่การศึกษามัธยมศึกษา เขต 1","tel":"0 2428 8980-4","fax":"0 2427 1629","url":"www.bpk.ac.th\/","num_stu":2971,"class":36,"dcode":1024,"dname":"ราษฎร์บูรณะ","lat":13.68359792,"lng":100.4945188},{"id_sch":10032016,"name":"โรงเรียนมัธยมวัดดุสิตาราม","address":"1\/13 ถนนสมเด็จพระปิ่นเล้า แขวงอรุณอมรินทร์ เขตบางกอกน้อย กรุงเทพฯ 10700","belong":"สังกัดสำนักงานเขตพื้นที่การศึกษามัธยมศึกษา เขต 1","tel":"0 2424 8870","fax":"0 2434 9169","url":"www.dusitaram.ac.th\/","num_stu":848,"class":16,"dcode":1020,"dname":"บางกอกน้อย","lat":13.76321444,"lng":100.4890396},{"id_sch":10030008,"name":"โรงเรียนโฆสิตสโมสร","address":"51\/2 ถนนอรุณอมรินทร์ แขวงศิริราช เขตบางกอกน้อย กรุงเทพฯ 10700","belong":"สังกัดสำนักงานเขตพื้นที่การศึกษาประถมศึกษากรุงเทพมหานคร","tel":"0 2411 3401","fax":"0 2418 2150","url":"www.kositsamosorn.ac.th\/Home.html","num_stu":657,"class":24,"dcode":1020,"dname":"บางกอกน้อย","lat":13.75314806,"lng":100.4854526},{"id_sch":10030007,"name":"โรงเรียนวัดอมรินทราราม","address":"566\/1 ถนนอรุณอมรินทร์ แขวงศิริราช เขตบางกอกน้อย กรุงเทพฯ 10700","belong":"สังกัดสำนักงานเขตพื้นที่การศึกษาประถมศึกษากรุงเทพมหานคร","tel":"0 2418 0927","fax":"0 2411 3017","url":"www.amarin.ac.th\/index1.htm","num_stu":1388,"class":41,"dcode":1020,"dname":"บางกอกน้อย","lat":13.75915403,"lng":100.4833265},{"id_sch":10030005,"name":"โรงเรียนประถมทวีธาภิเศก","address":"160 ซอยวังเดิม 8 ถนนอรุณอมรินทร์ แขวงวัดอรุณ เขตบางกอกใหญ่ กรุงเทพฯ 10600","belong":"สังกัดสำนักงานเขตพื้นที่การศึกษาประถมศึกษากรุงเทพมหานคร","tel":"0 2465 3010","fax":"0 2465 2882","url":"www.facebook.com\/โรงเรียนประถมทวีธาภิเศก-สทภ-840883105926352\/","num_stu":552,"class":19,"dcode":1016,"dname":"บางกอกใหญ่","lat":13.74469063,"lng":100.4878683},{"id_sch":10032014,"name":"โรงเรียนสตรีวัดระฆัง","address":"248\/9 ถนนอรุณอมรินทร์ แขวงศิริราช เขตบางกอกน้อย กรุงเทพฯ 10700","belong":"สังกัดสำนักงานเขตพื้นที่การศึกษามัธยมศึกษา เขต 1","tel":"0 2412 9103","fax":"0 2421 9872","url":"www.sr.ac.th\/","num_stu":1767,"class":24,"dcode":1020,"dname":"บางกอกน้อย","lat":13.7518683,"lng":100.4863138},{"id_sch":10032002,"name":"โรงเรียนทวีธาภิเศก","address":"505\/5 ซอยอิสรภาพ42 แขวงวัดอรุณ เขตบางกอกใหญ่ กรุงเทพฯ 10600","belong":"สังกัดสำนักงานเขตพื้นที่การศึกษามัธยมศึกษา เขต 1","tel":"0 2465 5156","fax":"0 2465 2882","url":"www.taweethapisek.ac.th","num_stu":2275,"class":36,"dcode":1016,"dname":"บางกอกใหญ่","lat":13.74570731,"lng":100.4826593},{"id_sch":10010003,"name":"โรงเรียนพระตำหนักสวนกุหลาบ","address":"ภายในพระบรมมหาราชวัง แขวงพระบรมมหาราชวัง เขตพระนคร กรุงเทพฯ 10200","belong":"สังกัดสำนักงานเขตพื้นที่การศึกษาประถมศึกษากรุงเทพมหานคร","tel":"0 2222 4871","fax":"0 2222 6557","url":"www.phratumnuk.ac.th\/index1.html","num_stu":817,"class":40,"dcode":1001,"dname":"พระนคร  ","lat":13.74806604,"lng":100.4917457},{"id_sch":10032011,"name":"โรงเรียนอุบลรัตนราชกัญญาราชวิทยาลัย","address":"151 ถนนปากน้ำฝั่งเหนือ แขวงบางพรม เขตตลิ่งชัน กรุงเทพฯ 10170","belong":"สังกัดสำนักงานเขตพื้นที่การศึกษามัธยมศึกษา เขต 1","tel":"0 2410 7803","fax":"0 2410 7472","url":"www.purcbkk.ac.th","num_stu":460,"class":9,"dcode":1019,"dname":"ตลิ่งชัน","lat":13.74519081,"lng":100.4586132},{"id_sch":10032007,"name":"โรงเรียนมัธยมวัดดาวคนอง","address":"162 ซอยเจริญนคร 65 แขวงดาวคะนอง เขตธนบุรี กรุงเทพฯ 10600","belong":"สังกัดสำนักงานเขตพื้นที่การศึกษามัธยมศึกษา เขต 1","tel":"0 2468 2163","fax":"0 2460 1220","url":"www.mdn.ac.th\/","num_stu":331,"class":7,"dcode":1015,"dname":"ธนบุรี","lat":13.69531881,"lng":100.4875664},{"id_sch":10032022,"name":"โรงเรียนวัดนวลนรดิศ","address":"137 ถนนเพชรเกษม19 แขวงปากคลอง เขตภาษีเจริญ กรุงเทพฯ 10160","belong":"สังกัดสำนักงานเขตพื้นที่การศึกษามัธยมศึกษา เขต 1","tel":"0 2467 2609","fax":"0 2457 1167","url":"www.nd.ac.th\/","num_stu":2460,"class":35,"dcode":1022,"dname":"ภาษีเจริญ","lat":13.72383592,"lng":100.4668214},{"id_sch":10030010,"name":"โรงเรียนวัดนาคปรก","address":"101 ถนนเทอดไท 49 แขวงปากคลอง เขตภาษีเจริญ กรุงเทพฯ 10160","belong":"สังกัดสำนักงานเขตพื้นที่การศึกษาประถมศึกษากรุงเทพมหานคร","tel":"0 2467 0568","fax":"0 2457 4202","url":"www.facebook.com\/watnakproksc","num_stu":197,"class":9,"dcode":1022,"dname":"ภาษีเจริญ","lat":13.71731262,"lng":100.4662724},{"id_sch":10030011,"name":"โรงเรียนวัดหนัง","address":"200 ซอยวุฒากาศ 42 ถนนวุฒากาศ แขวงบางค้อ เขตจอมทอง กรุงเทพฯ 10150","belong":"สังกัดสำนักงานเขตพื้นที่การศึกษาประถมศึกษากรุงเทพมหานคร","tel":"0 2468 2662","fax":"0 2476 7397","url":"www.watnangschool.ac.th\/","num_stu":427,"class":21,"dcode":1035,"dname":"จอมทอง","lat":13.70435474,"lng":100.4654523},{"id_sch":10030012,"name":"โรงเรียนอนุบาลวัดนางนอง","address":"74 ถนนวุฒากาศ แขวงบางค้อ เขตจอมทอง กรุงเทพฯ 10150","belong":"สังกัดสำนักงานเขตพื้นที่การศึกษาประถมศึกษากรุงเทพมหานคร","tel":"0 2468 2653","fax":"0 2876 3236","url":"www.anubannangnong.com\/","num_stu":1028,"class":33,"dcode":1035,"dname":"จอมทอง","lat":13.70416453,"lng":100.4670414},{"id_sch":10032041,"name":"โรงเรียนวัดราชโอรส","address":"4 ซอยเอกชัย 4 ถนนเอกชัย แขวงบางค้อ เขตจอมทอง กรุงเทพฯ 10150","belong":"สังกัดสำนักงานเขตพื้นที่การศึกษามัธยมศึกษา เขต 1","tel":"0 2415 0621","fax":"0 2893 7386","url":"www.ro.ac.th\/","num_stu":3058,"class":45,"dcode":1035,"dname":"จอมทอง","lat":13.70286491,"lng":100.4636402},{"id_sch":10032026,"name":"โรงเรียนจันทร์ประดิษฐารามวิทยาคม","address":"111 ซอยเพชรเกษม 48 แขวงบางด้วน เขตภาษีเจริญ กรุงเทพฯ 10160","belong":"สังกัดสำนักงานเขตพื้นที่การศึกษามัธยมศึกษา เขต 1","tel":"0 2869 6465","fax":"0 2457 1291","url":"www.chanpradit.ac.th","num_stu":1773,"class":24,"dcode":1022,"dname":"ภาษีเจริญ","lat":13.7166114,"lng":100.4425794},{"id_sch":10032023,"name":"โรงเรียนวัดรางบัว","address":"21 ม.6 เพชรเกษม33 แขวงบางหว้า เขตภาษีเจริญ กรุงเทพฯ 10160","belong":"สังกัดสำนักงานเขตพื้นที่การศึกษามัธยมศึกษา เขต 1","tel":"0 2467 0532","fax":"0 2467 0103","url":"241","num_stu":241,"class":13,"dcode":1022,"dname":"ภาษีเจริญ","lat":13.71103465,"lng":100.4393554},{"id_sch":10032037,"name":"โรงเรียนอิสลามวิทยาลัยแห่งประเทศไทย","address":"23 ม.1 ถนนประชาอุทิศ แขวงทุ่งครุ เขตทุ่งครุ กรุงเทพฯ 10140","belong":"สังกัดสำนักงานเขตพื้นที่การศึกษามัธยมศึกษา เขต 1","tel":"0 2426 1396","fax":"0 2461 1396 ต่","url":"www.islamiccollege.ac.th\/","num_stu":1478,"class":25,"dcode":1049,"dname":"ทุ่งครุ","lat":13.6379922,"lng":100.5022543},{"id_sch":10032033,"name":"โรงเรียนราชวินิตบางแคปานขำ","address":"253 ซอยหมู่บ้านเศรษฐกิจ 22 แขวงบางแคเหนือ เขตบางแค กรุงเทพฯ 10160","belong":"สังกัดสำนักงานเขตพื้นที่การศึกษามัธยมศึกษา เขต 1","tel":"0 2421 0119","fax":"0 2421 0743","url":"www.rnp.ac.th\/mainpage","num_stu":1536,"class":26,"dcode":1040,"dname":"บางแค","lat":13.72335739,"lng":100.3788469},{"id_sch":10032032,"name":"โรงเรียนปัญญาวรคุณ","address":"857 ซอยเพชรเกษม63 ถนนเพชรเกษม แขวงหลักสอง เขตบางแค กรุงเทพฯ 10160","belong":"สังกัดสำนักงานเขตพื้นที่การศึกษามัธยมศึกษา เขต 1","tel":"0 2413 1657","fax":"0 2455 7913","url":"www.pws.ac.th","num_stu":1839,"class":27,"dcode":1040,"dname":"บางแค","lat":13.69325204,"lng":100.3922251},{"id_sch":10012034,"name":"โรงเรียนศีลาจารพิพัฒน์","address":"212 ซ.กรุงเทพนนท์ 21 ถนนกรุงเทพ-นนทบุรี แขวงบางซื่อ เขตบางซื่อ กรุงเทพฯ 10800","belong":"สังกัดสำนักงานเขตพื้นที่การศึกษามัธยมศึกษา เขต 1","tel":"0 2587 2934","fax":"0 2585 6150","url":"www.silacharn.ac.th\/","num_stu":440,"class":15,"dcode":1029,"dname":"บางซื่อ","lat":13.81693456,"lng":100.5289328},{"id_sch":10010014,"name":"โรงเรียนวัดเวตวันธรรมาวาส","address":"188 ซอยกรุงเทพ-นนทบุรี21 แขวงบางซื่อ เขตบางซื่อ กรุงเทพฯ 10800","belong":"สังกัดสำนักงานเขตพื้นที่การศึกษาประถมศึกษากรุงเทพมหานคร","tel":"0 2585 0518","fax":"0 2585 0518","url":"www.wetawanschool.com\/","num_stu":481,"class":17,"dcode":1029,"dname":"บางซื่อ","lat":13.81666794,"lng":100.5296525},{"id_sch":10010017,"name":"โรงเรียนพญาไท","address":"306 ถนนศรีอยุธยา แขวงทุ่งพญาไท เขตราชเทวี กรุงเทพฯ 1040","belong":"สังกัดสำนักงานเขตพื้นที่การศึกษาประถมศึกษากรุงเทพมหานคร","tel":"0 2354 5251","fax":"0 2354 5277","url":"www.phyathai.ac.th","num_stu":1808,"class":63,"dcode":1037,"dname":"ราชเทวี","lat":13.75965242,"lng":100.5289669},{"id_sch":10012017,"name":"โรงเรียนเตรียมอุดมศึกษา","address":"227 ถนนพญาไท แขวงปทุมวัน เขตปทุมวัน กรุงเทพฯ 10330","belong":"สังกัดสำนักงานเขตพื้นที่การศึกษามัธยมศึกษา เขต 1","tel":"0 2254 0287-8","fax":"0 2252 7002","url":"www.triamudom.ac.th\/","num_stu":4442,"class":108,"dcode":1007,"dname":"ปทุมวัน","lat":13.74040534,"lng":100.5308115},{"id_sch":10012006,"name":"โรงเรียนพุทธจักรวิทยา","address":"728\/2 ถนนพระรามที่4 แขวงสี่พระยา เขตบางรัก กรุงเทพฯ 10500","belong":"สังกัดสำนักงานเขตพื้นที่การศึกษามัธยมศึกษา เขต 2","tel":"0 2637 1178-80","fax":"0 2637 0499","url":"buddhajak.ac.th\/","num_stu":189,"class":7,"dcode":1004,"dname":"บางรัก","lat":13.73057058,"lng":100.5293515},{"id_sch":10010007,"name":"โรงเรียนวัดโสมนัส","address":"646\/2 แขวงวัดโสมนัส เขตป้อมปราบศัตรูพ่าย กรุงเทพฯ 10100","belong":"สังกัดสำนักงานเขตพื้นที่การศึกษาประถมศึกษากรุงเทพมหานคร","tel":"0 2281 0792","fax":"0 2282 0881","url":"www.watsommanasschool.ac.th","num_stu":316,"class":18,"dcode":1008,"dname":"ป้อมปราบศัตรูพ่าย","lat":13.76149944,"lng":100.5108997},{"id_sch":10012018,"name":"โรงเรียนวัดสระเกศ","address":"344 ถนนจักรพรรดิพงษ์ แขวงบ้านบาตร เขตป้อมปราบศัตรูพ่าย","belong":"สังกัดสำนักงานเขตพื้นที่การศึกษามัธยมศึกษา เขต 1","tel":"0 2221 6028","fax":"0 2621 0675","url":"www.watsaket.ac.th\/page\/home.html","num_stu":145,"class":6,"dcode":1008,"dname":"ป้อมปราบศัตรูพ่าย","lat":13.75324058,"lng":100.508914},{"id_sch":10012009,"name":"โรงเรียนวัดบวรนิเวศ","address":"250 ถนนพระสุเมรุ แขวงบวรนิเวศ เขตพระนคร กรุงเทพฯ 10200","belong":"สังกัดสำนักงานเขตพื้นที่การศึกษามัธยมศึกษา เขต 1","tel":"0 2282 0025 ต่อ 130","fax":"0 2280 0564","url":"www.bn.ac.th\/ver2013","num_stu":300,"class":6,"dcode":1001,"dname":"พระนคร  ","lat":13.75879732,"lng":100.5019214},{"id_sch":10012001,"name":"โรงเรียนสตรีวิทยา","address":"82 ถนนดินสอ แขวงบวรนิเวศ เขตพระนคร กรุงเทพฯ 10200","belong":"สังกัดสำนักงานเขตพื้นที่การศึกษามัธยมศึกษา เขต 1","tel":"0 2281 6505","fax":"0 2282 1300","url":"http:\/\/satriwit.ac.th\/home\/","num_stu":3131,"class":42,"dcode":1001,"dname":"พระนคร  ","lat":13.75819717,"lng":100.5010205},{"id_sch":10010001,"name":"โรงเรียนวัดชนะสงคราม","address":"77\/1 ถนนจักรพงษ์ แขวงชนะสงคราม เขตพระนคร กรุงเทพฯ 10200","belong":"สังกัดสำนักงานเขตพื้นที่การศึกษาประถมศึกษากรุงเทพมหานคร","tel":"0 2043 6548","fax":"0 2282 0168","url":"www.watchanasongkram.ac.th\/","num_stu":154,"class":9,"dcode":1001,"dname":"พระนคร  ","lat":13.76022287,"lng":100.4949299},{"id_sch":10012019,"name":"โรงเรียนเทพศิรินทร์","address":"1466 ถนนกรุงเกษม แขวงวัดเทพศิรินทร์ เขตป้อมปราบศัตรูพ่","belong":"สังกัดสำนักงานเขตพื้นที่การศึกษามัธยมศึกษา เขต 1","tel":"0 2224 6085","fax":"0 2224 6085","url":"https:\/\/www.debsirin.ac.th\/","num_stu":3007,"class":36,"dcode":1008,"dname":"ป้อมปราบศัตรูพ่าย","lat":13.74741074,"lng":100.5161911},{"id_sch":10012020,"name":"โรงเรียนสายปัญญา ในพระราชินูปถัมภ์","address":"1598 ถนนกรุงเกษม แขวง ป้อมปราบ เขตป้อมปราบศัตรูพ่าย กรุ","belong":"สังกัดสำนักงานเขตพื้นที่การศึกษามัธยมศึกษา เขต 1","tel":"0 2221 0196","fax":"0 2623 2249","url":"www.saipanya.ac.th","num_stu":1052,"class":18,"dcode":1008,"dname":"ป้อมปราบศัตรูพ่าย","lat":13.74321363,"lng":100.5151839},{"id_sch":10012025,"name":"โรงเรียนไตรมิตรวิทยาลัย","address":"661 ถนนเจริญกรุง แขวงตลาดน้อย เขตสัมพันธวงศ์ กรุงเทพฯ 1010","belong":"สังกัดสำนักงานเขตพื้นที่การศึกษามัธยมศึกษา เขต 1","tel":"0 2623 0904","fax":"0 2222 5863","url":"www.tmc.ac.th","num_stu":838,"class":18,"dcode":1013,"dname":"สัมพันธวงศ์","lat":13.73853976,"lng":100.5137946},{"id_sch":10012010,"name":"โรงเรียนวัดราชบพิธ","address":"3 ถนนสนามไชย แขวงพระบรมมหาราชวัง เขตพระนคร กรุงเทพฯ 10200","belong":"สังกัดสำนักงานเขตพื้นที่การศึกษามัธยมศึกษา เขต 1","tel":"0 2226 3071","fax":"0 2622 3340","url":"www.rb.ac.th","num_stu":1908,"class":36,"dcode":1001,"dname":"พระนคร  ","lat":13.7451262,"lng":100.4950653},{"id_sch":10012004,"name":"โรงเรียนสวนกุหลาบวิทยาลัย","address":"88 ถนนตรีเพชร แขวงวังบูรพาภิรมย์ เขตพระนคร กรุงเทพฯ 10200","belong":"สังกัดสำนักงานเขตพื้นที่การศึกษามัธยมศึกษา เขต 1","tel":"0 2221 6701","fax":"0 2224 8554","url":"www.sk.ac.th","num_stu":3180,"class":43,"dcode":1001,"dname":"พระนคร  ","lat":13.74285634,"lng":100.4982041},{"id_sch":10030001,"name":"โรงเรียนวัดประยุรวงศาวาส","address":"ถนนเทศบาลสาย 1 แขวงวัดกัลยาณ์ เขตธนบุรี กรุงเทพฯ 10600","belong":"สังกัดสำนักงานเขตพื้นที่การศึกษาประถมศึกษากรุงเทพมหานคร","tel":"0 2465 2860","fax":"0 2466 2001","url":"www.swy.ac.th\/","num_stu":326,"class":12,"dcode":1015,"dname":"ธนบุรี","lat":13.73711936,"lng":100.4947186},{"id_sch":10032001,"name":"โรงเรียนศึกษานารี","address":"176 ถนนประชาธิปก แขวงวัดกัลยาณ์ เขตธนบุรี กรุงเทพฯ 10600","belong":"สังกัดสำนักงานเขตพื้นที่การศึกษามัธยมศึกษา เขต 1","tel":"0 2466 7223","fax":"0 2466 2182","url":"www.snr.ac.th\/","num_stu":3332,"class":40,"dcode":1015,"dname":"ธนบุรี","lat":13.73510853,"lng":100.4953901},{"id_sch":10010013,"name":"โรงเรียนทุ่งมหาเมฆ","address":"13 ถนนนราธิวาสราชนครินทร์ ซ.8 แขวงทุ่งวัดดอน เขตสาทร กรุงเทพฯ 10120","belong":"สังกัดสำนักงานเขตพื้นที่การศึกษาประถมศึกษากรุงเทพมหานคร","tel":"0 2286 1748","fax":"0 2287 3240","url":"www.tms.ac.th\/","num_stu":627,"class":24,"dcode":1028,"dname":"สาทร","lat":13.71404244,"lng":100.5300396},{"id_sch":10012031,"name":"โรงเรียนยานนาเวศวิทยาคม","address":"146 ถนนถนนสาธุประดิษฐ์ แขวงทุ่งวัดดอน เขตสาทร กรุงเทพฯ 10120","belong":"สังกัดสำนักงานเขตพื้นที่การศึกษามัธยมศึกษา เขต 2","tel":"0 2211 0943","fax":"0 2211 0943","url":"www.yn.ac.th","num_stu":1415,"class":21,"dcode":1028,"dname":"สาทร","lat":13.70319744,"lng":100.528222},{"id_sch":10012032,"name":"โรงเรียนสตรีศรีสุริโยทัย","address":"1 ซอยเจริญกรุง 57 ถนนเจริญกรุง เขตสาทร กรุงเทพฯ 10120","belong":"สังกัดสำนักงานเขตพื้นที่การศึกษามัธยมศึกษา เขต 2","tel":"0 2211 0383","fax":"0 2675 9134","url":"www.suriyothai.ac.th","num_stu":1819,"class":27,"dcode":1028,"dname":"สาทร","lat":13.7154327,"lng":100.515662},{"id_sch":10012030,"name":"โรงเรียนวัดสุทธิวราราม","address":"252 ถนนเจริญกรุง แขวงยานาวา เขตสาทร กรุงเทพฯ 10120","belong":"สังกัดสำนักงานเขตพื้นที่การศึกษามัธยมศึกษา เขต 2","tel":"0 2211 4192","fax":"0 2212 4495","url":"www.suthi.ac.th","num_stu":2739,"class":36,"dcode":1028,"dname":"สาทร","lat":13.71279816,"lng":100.5119006},{"id_sch":10032030,"name":"โรงเรียนวัดบวรมงคล","address":"1121 ซอยจรัญสนิทวงศ์ 46 แขวงบางยี่ขัน เขตบางพลัด กรุงเทพฯ 10700","belong":"สังกัดสำนักงานเขตพื้นที่การศึกษามัธยมศึกษา เขต 1","tel":"0 2424 7702","fax":"0 2883 3650","url":"www.bm.ac.th","num_stu":293,"class":8,"dcode":1025,"dname":"บางพลัด","lat":13.77670908,"lng":100.4937214},{"id_sch":10032015,"name":"โรงเรียนสุวรรณารามวิทยาคม","address":"512 \/ 1 ซอยจรัญสนิทวงศ์ 32 ถนนจรัญสนิทวงศ์ แขวงศิริราช เขตบางกอกน้อย กรุงเทพ","belong":"สังกัดสำนักงานเขตพื้นที่การศึกษามัธยมศึกษา เขต 1","tel":"0 2424 1671","fax":"0 2433 4550","url":"www.suwan.ac.th\/","num_stu":1407,"class":23,"dcode":1020,"dname":"บางกอกน้อย","lat":13.76239921,"lng":100.4758007},{"id_sch":10030004,"name":"โรงเรียนวัดหงส์รัตนาราม","address":"46 ซอยวังเดิม 2 ถนนวังเดิม แขวงวัดอรุณ เขตบางกอกใหญ่ กรุงเทพฯ 10600","belong":"สังกัดสำนักงานเขตพื้นที่การศึกษาประถมศึกษากรุงเทพมหานคร","tel":"0 2466 7937","fax":"0 2472 0876","url":"wathongschool.ac.th\/","num_stu":202,"class":15,"dcode":1016,"dname":"บางกอกใหญ่","lat":13.74036814,"lng":100.4866389},{"id_sch":10030003,"name":"โรงเรียนวัดสังข์กระจาย (แจ่มวิชาสอน)","address":"506 ริมคลองบางกอกใหญ่ แขวงวัดท่าพระ เขตบางกอกใหญ่ กรุงเทพฯ 10600","belong":"สังกัดสำนักงานเขตพื้นที่การศึกษาประถมศึกษากรุงเทพมหานคร","tel":"0 2465 0397","fax":"0 2465 5010","url":"sangkrajay.ac.th\/","num_stu":161,"class":9,"dcode":1016,"dname":"บางกอกใหญ่","lat":13.73197625,"lng":100.4856798},{"id_sch":10032018,"name":"โรงเรียนสวนอนันต์","address":"65 ถนนอิสรภาพ ซอย39 แขวงบ้านช่างหล่อ เขตบางกอกน้อย กรุงเทพฯ 10700","belong":"สังกัดสำนักงานเขตพื้นที่การศึกษามัธยมศึกษา เขต 1","tel":"0 2412 7083","fax":"0 2412 7083","url":"www.suananun.ac.th","num_stu":156,"class":6,"dcode":1020,"dname":"บางกอกน้อย","lat":13.75166057,"lng":100.4757519},{"id_sch":10032013,"name":"โรงเรียนชิโนรสวิทยาลัย","address":"45 ถนนอิสรภาพ แขวงบ้านช่างหล่อ เขตบางกอกน้อย กรุงเทพฯ 10700","belong":"สังกัดสำนักงานเขตพื้นที่การศึกษามัธยมศึกษา เขต 1","tel":"0 2866 1882","fax":"0 2411 1461","url":"www.chinorot.ac.th\/","num_stu":1747,"class":34,"dcode":1020,"dname":"บางกอกน้อย","lat":13.74822493,"lng":100.4788745},{"id_sch":10030002,"name":"โรงเรียนวัดเจ้ามูล","address":"26\/3 ซอยจรัญสนิทวงศ์ 8 แขวงวัดท่าพระ เขตบางกอกใหญ่ กรุงเทพฯ 10600","belong":"สังกัดสำนักงานเขตพื้นที่การศึกษาประถมศึกษากรุงเทพมหานคร","tel":"0 2411 2112","fax":"0 2418 4838","url":"www.watchaomool.ac.th\/main.html","num_stu":339,"class":18,"dcode":1016,"dname":"บางกอกใหญ่","lat":13.73691856,"lng":100.4724879},{"id_sch":10032004,"name":"โรงเรียนวัดอินทาราม","address":"258 ถนนเทอดไท แขวงบางยี่เรือ เขตธนบุรี กรุงเทพฯ 10600","belong":"สังกัดสำนักงานเขตพื้นที่การศึกษามัธยมศึกษา เขต 1","tel":"0 2465 3310","fax":"0 2472 2771","url":"https:\/\/www.ir.ac.th\/","num_stu":1160,"class":25,"dcode":1015,"dname":"ธนบุรี","lat":13.7227558,"lng":100.4826999},{"id_sch":10032008,"name":"โรงเรียนฤทธิณรงค์รอน","address":"554 ซอยเพชรเกษม 2 แขวงวัดท่าพระ เขตบางกอกใหญ่ กรุงเทพฯ 10600","belong":"สังกัดสำนักงานเขตพื้นที่การศึกษามัธยมศึกษา เขต 1","tel":"0 2465 4580","fax":"0 2465 7893","url":"www.nr.ac.th\/","num_stu":656,"class":13,"dcode":1016,"dname":"บางกอกใหญ่","lat":13.73025964,"lng":100.4855303},{"id_sch":10032005,"name":"โรงเรียนวัดประดู่ในทรงธรรม","address":"1160\/3 ซอยเพชรเกษม 15 ถนนเพชรเกษม เขตบางกอกใหญ่ กรุงเทพฯ","belong":"สังกัดสำนักงานเขตพื้นที่การศึกษามัธยมศึกษา เขต 1","tel":"0 2457 9830","fax":"0 2457 4437","url":"www.pradoonai.ac.th\/page\/","num_stu":415,"class":6,"dcode":1016,"dname":"บางกอกใหญ่","lat":13.7248153,"lng":100.470859},{"id_sch":10012012,"name":"โรงเรียนเบญจมราชาลัย ในพระราชอุปถัมภ์","address":"126 ถนนศิริพงษ์ แขวงสำราญราษฏร์ เขตพระนคร กรุงเทพฯ 10200","belong":"สังกัดสำนักงานเขตพื้นที่การศึกษามัธยมศึกษา เขต 1","tel":"0 2222 4887","fax":"0 2222 7881","url":"www.br.ac.th","num_stu":1702,"class":24,"dcode":1001,"dname":"พระนคร  ","lat":13.75095838,"lng":100.5022135},{"id_sch":10010011,"name":"โรงเรียนวัดชัยชนะสงคราม (วัดตึก)","address":"83 ถนนมหาจักร แขวงสัมพันธวงศ์ เขตสัมพันธวงศ์ กรุงเทพฯ 10100","belong":"สังกัดสำนักงานเขตพื้นที่การศึกษาประถมศึกษากรุงเทพมหานคร","tel":"0 2221 3879","fax":"0 2222 3861","url":"www.facebook.com\/wattukschool\/","num_stu":147,"class":9,"dcode":1013,"dname":"สัมพันธวงศ์","lat":13.74406795,"lng":100.5055725},{"id_sch":10010002,"name":"โรงเรียนอนุบาลวัดปรินายก","address":"1\/1 ถนนปรินายก แขวงบ้านพานถม เขตพระนคร กรุงเทพฯ 10200","belong":"สังกัดสำนักงานเขตพื้นที่การศึกษาประถมศึกษากรุงเทพมหานคร","tel":"0 2281 6104","fax":"0 2282 2091","url":"www.parinayok.ac.th\/","num_stu":385,"class":22,"dcode":1001,"dname":"พระนคร  ","lat":13.75760911,"lng":100.5055481},{"id_sch":10010006,"name":"โรงเรียนวัดพลับพลาชัย","address":"5\/2 ถนนไมตรีจิตต์ แขวงป้อมปราบ เขตป้อมปราบศัตรูพ่าย กรุงเทพฯ","belong":"สังกัดสำนักงานเขตพื้นที่การศึกษาประถมศึกษากรุงเทพมหานคร","tel":"0 2224 7635","fax":"0 2224 2637","url":"www.facebook.com\/chawalit.wichadee","num_stu":502,"class":22,"dcode":1008,"dname":"ป้อมปราบศัตรูพ่าย","lat":13.74606885,"lng":100.5124374},{"id_sch":10010010,"name":"โรงเรียนมหาวีรานุวัตร","address":"661 ถนนมิตรภาพไทย-จีน แขวงตลาดน้อย เขตสัมพันธวงศ์ กรุงเทพ 10100","belong":"สังกัดสำนักงานเขตพื้นที่การศึกษาประถมศึกษากรุงเทพมหานคร","tel":"0 2221 8936","fax":"0 2226 3280","url":"www.mahawee.ac.th","num_stu":224,"class":9,"dcode":1013,"dname":"สัมพันธวงศ์","lat":13.73816587,"lng":100.5143285},{"id_sch":10012036,"name":"โรงเรียนราชนันทาจารย์ สามเสนวิทยาลัย2","address":"16 ซอยโชติวัฒน์ 18 ถนนประชาชื่น แขวงบางซื่อ เขตบางซื่อ กรุงเทพฯ 10800","belong":"สังกัดสำนักงานเขตพื้นที่การศึกษามัธยมศึกษา เขต 1","tel":"0 2959 3747","fax":"0 2959 3751","url":"www.samsen2.ac.th\/","num_stu":1245,"class":22,"dcode":1029,"dname":"บางซื่อ","lat":13.8160148,"lng":100.5415805},{"id_sch":10012003,"name":"โรงเรียนสตรีวัดมหาพฤฒาราม ในพระบรมราชินู","address":"519 ถนนมหาพฤฒาราม แขวงมหาพฤฒาราม เขตบางรัก กรุงเทพฯ 10500","belong":"สังกัดสำนักงานเขตพื้นที่การศึกษามัธยมศึกษา เขต 2","tel":"0 2236 5755","fax":"0 2236 5740","url":"www.mps.ac.th","num_stu":1999,"class":24,"dcode":1004,"dname":"บางรัก","lat":13.73249684,"lng":100.5160212},{"id_sch":10022028,"name":"โรงเรียนฤทธิยะวรรณาลัย 2","address":"119 หมู่ 1 ซอยสายไหม 43 ถนนสายไหม แขวงสายไหม เขตสายไหม กรุงเทพฯ 10220","belong":"สังกัดสำนักงานเขตพื้นที่การศึกษามัธยมศึกษา เขต 2","tel":"0 2536 0017","fax":"-","url":"http:\/\/rw2.ac.th\/","num_stu":2586,"class":33,"dcode":1042,"dname":"สายไหม","lat":13.91375418,"lng":100.6253033},{"id_sch":10032024,"name":"โรงเรียนสตรีวัดอัปสรสวรรค์","address":"250 ถนนรัชมงคลประสาธน์ แขวงปากคลอง เขตภาษีเจริญ กรุงเทพฯ 10160","belong":"สังกัดสำนักงานเขตพื้นที่การศึกษามัธยมศึกษา เขต 1","tel":"0 2457 0505","fax":"0 2457 0506","url":"www.absornsawan.ac.th\/home.html","num_stu":1897,"class":30,"dcode":1022,"dname":"ภาษีเจริญ","lat":13.7210159,"lng":100.469809},{"id_sch":10032010,"name":"โรงเรียนธนบุรีวรเทพีพลารักษ์","address":"131\/1-2 ถนนเทอดไท แขวงตลาดพลู เขตธนบุรี กรุงเทพฯ 10600","belong":"สังกัดสำนักงานเขตพื้นที่การศึกษามัธยมศึกษา เขต 1","tel":"0 2465 7753","fax":"0 2466 0642","url":"www.thonburee.ac.th\/","num_stu":369,"class":9,"dcode":1015,"dname":"ธนบุรี","lat":13.72154249,"lng":100.4754895},{"id_sch":10030006,"name":"โรงเรียนวัดช่างเหล็ก","address":"430\/19 ถนนฉิมพลี แขวงคลองชักพระ เขตตลิ่งชัน กรุงเทพฯ 10170","belong":"สังกัดสำนักงานเขตพื้นที่การศึกษาประถมศึกษากรุงเทพมหานคร","tel":"0 2424 7045","fax":"0 2448 7480","url":"https:\/\/www.facebook.com\/watchanglek.bkk\/","num_stu":171,"class":9,"dcode":1019,"dname":"ตลิ่งชัน","lat":13.7736919,"lng":100.4541379},{"id_sch":10032003,"name":"โรงเรียนสุวรรณพลับพลาพิทยาคม","address":"41 หมู่ 11 ถนนวัดแก้ว-พุทธมณฑลสาย 1 แขวงบางพรหม เขตตลิ่งชัน กรุงเทพฯ 10170","belong":"สังกัดสำนักงานเขตพื้นที่การศึกษามัธยมศึกษา เขต 1","tel":"0 2418 2538","fax":"0 2418 2911","url":"www.suwanplubpla.ac.th\/","num_stu":585,"class":11,"dcode":1019,"dname":"ตลิ่งชัน","lat":13.75578898,"lng":100.4487746},{"id_sch":10020004,"name":"โรงเรียนบางบัว (เพ่งตั้งตรงจิตรวิทยาคาร)","address":"8 หมู่ 4 ถนนพหลโยธิน แขวงลาดยาว เขตจตุจักร กรุงเทพฯ 10900","belong":"สังกัดสำนักงานเขตพื้นที่การศึกษาประถมศึกษากรุงเทพมหานคร","tel":"0 2579 1941","fax":"0 2579 1941","url":"www.bbpt.ac.th","num_stu":330,"class":41,"dcode":1030,"dname":"จตุจักร","lat":13.85680142,"lng":100.5851821},{"id_sch":10022016,"name":"โรงเรียนสุขุมนวพันธ์อุปถัมภ์","address":"818 ซอยเสรีไทย 43 ถนนเสรีไทย แขวงคลองกุ่ม เขตบึงกุ่ม กรุงเทพฯ 10240","belong":"สังกัดสำนักงานเขตพื้นที่การศึกษามัธยมศึกษา เขต 2","tel":"0 2364 7335","fax":"0 2364 7325","url":"www.sukum.ac.th\/","num_stu":1020,"class":14,"dcode":1027,"dname":"บึงกุ่ม","lat":13.78711248,"lng":100.6682226},{"id_sch":10032043,"name":"โรงเรียนสวนกุหลาบวิทยาลัย ธนบุรี","address":"201 ถนนกาญจนาภิเษก แขวงท่าข้าม เขตบางขุนเทียน กรุงเทพฯ 10150","belong":"สังกัดสำนักงานเขตพื้นที่การศึกษามัธยมศึกษา เขต 1","tel":"0 2496 8322","fax":"0 2496 8323","url":"www.sk-thonburi.ac.th\/","num_stu":3372,"class":47,"dcode":1021,"dname":"บางขุนเทียน","lat":13.62637215,"lng":100.4543322},{"id_sch":10022041,"name":"โรงเรียนเตรียมอุดมศึกษาพัฒนาการสุวรรณภูม","address":"199 ซอยร่มเกล้า17 แขวงคลองสามประเวศ เขตลาดกระบัง กรุงเทพฯ 10520","belong":"สังกัดสำนักงานเขตพื้นที่การศึกษามัธยมศึกษา เขต 2","tel":"0 2321 0433","fax":"0 2321 0433","url":"www.tupp.ac.th\/","num_stu":2324,"class":35,"dcode":1011,"dname":"ลาดกระบัง","lat":13.77700802,"lng":100.7640104},{"id_sch":10022039,"name":"โรงเรียนเตรียมอุดมศึกษา สุวินทวงศ์","address":"67 หมู่ 8 ซอยร่วมพัฒนา ถนนสุวินทวงศ์ แขวงลำผักชี เขตหนองจอก กรุงเทพฯ 10530","belong":"สังกัดสำนักงานเขตพื้นที่การศึกษามัธยมศึกษา เขต 2","tel":"0 2175 4824 -9","fax":"-","url":"www.tusw.ac.th\/mainpage","num_stu":1470,"class":24,"dcode":1003,"dname":"หนองจอก","lat":13.79367116,"lng":100.8601177}]