[{"school_id":10010007,"name":"โรงเรียนวัดโสมนัส","lat":13.761499,"lng":100.510900,"district_name":"สังกัดสำนักงานเขตพื้นที่การศึกษาประถมศึกษากรุงเทพมหานคร3","phone":"0 2281 0792","website":"www.watsommanasschool.ac.th"}, 
 {"school_id":10032012,"name":"โรงเรียนมหรรณพาราม","lat":13.777814,"lng":100.446506,"district_name":"สังกัดสำนักงานเขตพื้นที่การศึกษามัธยมศึกษา เขต 1","phone":"0 2448 6258","website":"www.mh.ac.th/"}, 
 {"school_id":10012002,"name":"โรงเรียนมัธยมวัดเบญจมบพิตร","lat":13.765936,"lng":100.512722,"district_name":"สังกัดสำนักงานเขตพื้นที่การศึกษามัธยมศึกษา เขต 1","phone":"0 2280 7459","website":"www.mwbb.ac.th/"}, 
 {"school_id":10032009,"name":"โรงเรียนโพธิสารพิทยากร","lat":13.767884,"lng":100.427125,"district_name":"สังกัดสำนักงานเขตพื้นที่การศึกษามัธยมศึกษา เขต 1","phone":"0 2448 6130","website":"www.ps.ac.th"}, 
 {"school_id":10010005,"name":"โรงเรียนทีปังกรวิทยาพัฒน์(วัดโบสถ์)","lat":13.782309,"lng":100.510821,"district_name":"สังกัดสำนักงานเขตพื้นที่การศึกษาประถมศึกษากรุงเทพมหานคร3","phone":"0 2243 8565","website":"www.tp-school.ac.th/index.php"}, 
 {"school_id":10012024,"name":"โรงเรียนเจ้าพระยาวิทยาคม","lat":13.673429,"lng":100.535878,"district_name":"สังกัดสำนักงานเขตพื้นที่การศึกษามัธยมศึกษา เขต 2","phone":"0 2295 1338","website":"www.chaopraya.ac.th"}, 
 {"school_id":10032007,"name":"โรงเรียนมัธยมวัดดาวคนอง","lat":13.695319,"lng":100.487566,"district_name":"สังกัดสำนักงานเขตพื้นที่การศึกษามัธยมศึกษา เขต 1","phone":"0 2468 2163","website":"www.mdn.ac.th/"}, 
 {"school_id":10012015,"name":"โรงเรียนวัดสังเวช","lat":13.764169,"lng":100.497027,"district_name":"สังกัดสำนักงานเขตพื้นที่การศึกษามัธยมศึกษา เขต 1","phone":"0 2629 2509","website":"www.watsw.ac.th"}, 
 {"school_id":10012039,"name":"โรงเรียนศรีอยุธยา ในพระอุปถัมภ์ฯ","lat":13.758380,"lng":100.538826,"district_name":"สังกัดสำนักงานเขตพื้นที่การศึกษามัธยมศึกษา เขต 1","phone":"0 2245 1717","website":"www.sriayudhya.ac.th/"}, 
 {"school_id":10032031,"name":"โรงเรียนวิมุตยารามพิทยากร","lat":13.809944,"lng":100.513376,"district_name":"สังกัดสำนักงานเขตพื้นที่การศึกษามัธยมศึกษา เขต 1","phone":"0 2424 2598","website":"www.wimut.ac.th/"}, 
 {"school_id":10032011,"name":"โรงเรียนอุบลรัตนราชกัญญาราชวิทยาลัย","lat":13.745191,"lng":100.458613,"district_name":"สังกัดสำนักงานเขตพื้นที่การศึกษามัธยมศึกษา เขต 1","phone":"0 2410 7803","website":"www.purcbkk.ac.th"}, 
 {"school_id":10012042,"name":"โรงเรียนมัธยมวัดธาตุทอง","lat":13.720625,"lng":100.585595,"district_name":"สังกัดสำนักงานเขตพื้นที่การศึกษามัธยมศึกษา เขต 2","phone":"0 2391 1300","website":"www.mtt.ac.th"}, 
 {"school_id":10022025,"name":"โรงเรียนสตรีวิทยา 2","lat":13.825800,"lng":100.616709,"district_name":"สังกัดสำนักงานเขตพื้นที่การศึกษามัธยมศึกษา เขต 2","phone":"0 2570 9939","website":"www.sw2.ac.th/th/"}, 
 {"school_id":10022020,"name":"โรงเรียนเตรียมอุดมศึกษาพัฒนาการ","lat":13.729418,"lng":100.646669,"district_name":"สังกัดสำนักงานเขตพื้นที่การศึกษามัธยมศึกษา เขต 2","phone":"02722 7970","website":"www.tup.ac.th"}, 
 {"school_id":10012009,"name":"โรงเรียนวัดบวรนิเวศ","lat":13.758797,"lng":100.501921,"district_name":"สังกัดสำนักงานเขตพื้นที่การศึกษามัธยมศึกษา เขต 1","phone":"0 2282 0025 ต่อ 130","website":"www.bn.ac.th/ver2013"}, 
 {"school_id":10032040,"name":"โรงเรียนมัธยมวัดสิงห์","lat":13.685105,"lng":100.446289,"district_name":"สังกัดสำนักงานเขตพื้นที่การศึกษามัธยมศึกษา เขต 1","phone":"0 2415 1681","website":"www.mws.ac.th/mainmws/"}, 
 {"school_id":10030012,"name":"โรงเรียนอนุบาลวัดนางนอง","lat":13.704165,"lng":100.467041,"district_name":"สังกัดสำนักงานเขตพื้นที่การศึกษาประถมศึกษากรุงเทพมหานคร3","phone":"0 2468 2653","website":"www.anubannangnong.com/"}, 
 {"school_id":10022007,"name":"โรงเรียนบดินทรเดชา (สิงห์ สิงหเสนี) 4","lat":13.787262,"lng":100.905156,"district_name":"สังกัดสำนักงานเขตพื้นที่การศึกษามัธยมศึกษา เขต 2","phone":"0 2176 6010","website":"bodin4.ac.th/mainpage"}, 
 {"school_id":10022017,"name":"โรงเรียนหอวัง","lat":13.819636,"lng":100.559290,"district_name":"สังกัดสำนักงานเขตพื้นที่การศึกษามัธยมศึกษา เขต 2","phone":"0 2512 6000","website":"www.horwang.ac.th/index2.php"}, 
 {"school_id":10030008,"name":"โรงเรียนโฆสิตสโมสร","lat":13.753148,"lng":100.485453,"district_name":"สังกัดสำนักงานเขตพื้นที่การศึกษาประถมศึกษากรุงเทพมหานคร3","phone":"0 2411 3401","website":"www.kositsamosorn.ac.th/Home.html"}, 
 {"school_id":10010008,"name":"โรงเรียนประถมนนทรี","lat":13.712656,"lng":100.552359,"district_name":"สังกัดสำนักงานเขตพื้นที่การศึกษาประถมศึกษากรุงเทพมหานคร3","phone":"0 2249 1446","website":"www.prathomnonsee.ac.th/"}, 
 {"school_id":10012019,"name":"โรงเรียนเทพศิรินทร์","lat":13.747411,"lng":100.516191,"district_name":"สังกัดสำนักงานเขตพื้นที่การศึกษามัธยมศึกษา เขต 1","phone":"0 2224 6085","website":"https://www.debsirin.ac.th/"}, 
 {"school_id":10032036,"name":"โรงเรียนวัดพุทธบูชา","lat":13.650867,"lng":100.474735,"district_name":"สังกัดสำนักงานเขตพื้นที่การศึกษามัธยมศึกษา เขต 1","phone":"0 2426 3222","website":"www.wpb.ac.th"}, 
 {"school_id":10022016,"name":"โรงเรียนสุขุมนวพันธ์อุปถัมภ์","lat":13.787112,"lng":100.668223,"district_name":"สังกัดสำนักงานเขตพื้นที่การศึกษามัธยมศึกษา เขต 2","phone":"0 2364 7335","website":"www.sukum.ac.th/"}, 
 {"school_id":10030010,"name":"โรงเรียนวัดนาคปรก","lat":13.717313,"lng":100.466272,"district_name":"สังกัดสำนักงานเขตพื้นที่การศึกษาประถมศึกษากรุงเทพมหานคร3","phone":"0 2467 0568","website":"www.facebook.com/watnakproksc"}, 
 {"school_id":10030011,"name":"โรงเรียนวัดหนัง","lat":13.704355,"lng":100.465452,"district_name":"สังกัดสำนักงานเขตพื้นที่การศึกษาประถมศึกษากรุงเทพมหานคร3","phone":"0 2468 2662","website":"www.watnangschool.ac.th/"}, 
 {"school_id":10012018,"name":"โรงเรียนวัดสระเกศ","lat":13.753241,"lng":100.508914,"district_name":"สังกัดสำนักงานเขตพื้นที่การศึกษามัธยมศึกษา เขต 1","phone":"0 2221 6028","website":"www.watsaket.ac.th/page/home.html"}, 
 {"school_id":10012006,"name":"โรงเรียนพุทธจักรวิทยา","lat":13.730571,"lng":100.529352,"district_name":"สังกัดสำนักงานเขตพื้นที่การศึกษามัธยมศึกษา เขต 2","phone":"0 2637 1178-80","website":"buddhajak.ac.th/"}, 
 {"school_id":10022003,"name":"โรงเรียนสตรีเศรษฐบุตรบำเพ็ญ","lat":13.813886,"lng":100.733341,"district_name":"สังกัดสำนักงานเขตพื้นที่การศึกษามัธยมศึกษา เขต 2","phone":"0 2540 7202","website":"www.sstb.ac.th"}, 
 {"school_id":10010003,"name":"โรงเรียนพระตำหนักสวนกุหลาบ","lat":13.748066,"lng":100.491746,"district_name":"สังกัดสำนักงานเขตพื้นที่การศึกษาประถมศึกษากรุงเทพมหานคร3","phone":"0 2222 4871","website":"www.phratumnuk.ac.th/index1.html"}, 
 {"school_id":10012035,"name":"โรงเรียนโยธินบูรณะ2(สุวรรณสุทธาราม)","lat":13.833457,"lng":100.529161,"district_name":"สังกัดสำนักงานเขตพื้นที่การศึกษามัธยมศึกษา เขต 1","phone":"0 2587 0978","website":"www.ssw.ac.th"}, 
 {"school_id":10022032,"name":"โรงเรียนบดินทรเดชา (สิงห์ สิงหเสนี)","lat":13.767373,"lng":100.615197,"district_name":"สังกัดสำนักงานเขตพื้นที่การศึกษามัธยมศึกษา เขต 2","phone":"0 2538 3964","website":"www.bodin.ac.th/home"}, 
 {"school_id":10012010,"name":"โรงเรียนวัดราชบพิธ","lat":13.745126,"lng":100.495065,"district_name":"สังกัดสำนักงานเขตพื้นที่การศึกษามัธยมศึกษา เขต 1","phone":"0 2226 3071","website":"www.rb.ac.th"}, 
 {"school_id":10012036,"name":"โรงเรียนราชนันทาจารย์ สามเสนวิทยาลัย2","lat":13.816015,"lng":100.541581,"district_name":"สังกัดสำนักงานเขตพื้นที่การศึกษามัธยมศึกษา เขต 1","phone":"0 2959 3747","website":"www.samsen2.ac.th/"}, 
 {"school_id":10022015,"name":"โรงเรียนบดินทรเดชา (สิงห์ สิงหเสนี)2","lat":13.814451,"lng":100.655339,"district_name":"สังกัดสำนักงานเขตพื้นที่การศึกษามัธยมศึกษา เขต 2","phone":"0 2947 9161","website":"www.bodin2.ac.th/"}, 
 {"school_id":10010004,"name":"โรงเรียนราชวินิต","lat":13.771906,"lng":100.507591,"district_name":"สังกัดสำนักงานเขตพื้นที่การศึกษาประถมศึกษากรุงเทพมหานคร3","phone":"0 2281 2156","website":"www.rachawinit.ac.th"}, 
 {"school_id":10022004,"name":"โรงเรียนมัธยมวัดหนองจอก","lat":13.854287,"lng":100.860294,"district_name":"สังกัดสำนักงานเขตพื้นที่การศึกษามัธยมศึกษา เขต 2","phone":"0 2989 5401","website":"www.nj.ac.th/index1.html"}, 
 {"school_id":10032030,"name":"โรงเรียนวัดบวรมงคล","lat":13.776709,"lng":100.493721,"district_name":"สังกัดสำนักงานเขตพื้นที่การศึกษามัธยมศึกษา เขต 1","phone":"0 2424 7702","website":"www.bm.ac.th"}, 
 {"school_id":10032025,"name":"โรงเรียนไชยฉิมพลีวิทยาคม","lat":13.735441,"lng":100.433309,"district_name":"สังกัดสำนักงานเขตพื้นที่การศึกษามัธยมศึกษา เขต 1","phone":"0 2410 1663","website":"www.chaichimplee.ac.th/"}, 
 {"school_id":10010016,"name":"โรงเรียนดาราคาม","lat":13.718372,"lng":100.583157,"district_name":"สังกัดสำนักงานเขตพื้นที่การศึกษาประถมศึกษากรุงเทพมหานคร3","phone":"0 2391 2422","website":"www.darakam.ac.th/"}, 
 {"school_id":10010014,"name":"โรงเรียนวัดเวตวันธรรมาวาส","lat":13.816668,"lng":100.529653,"district_name":"สังกัดสำนักงานเขตพื้นที่การศึกษาประถมศึกษากรุงเทพมหานคร3","phone":"0 2585 0518","website":"www.wetawanschool.com/"}, 
 {"school_id":10032035,"name":"โรงเรียนนวมินทราชินูทิศสตรีวิทยา พุทธมณฑ","lat":13.773567,"lng":100.355566,"district_name":"สังกัดสำนักงานเขตพื้นที่การศึกษามัธยมศึกษา เขต 1","phone":"0 2441 3593","website":"www.satriwit3.ac.th/"}, 
 {"school_id":10032023,"name":"โรงเรียนวัดรางบัว","lat":13.711035,"lng":100.439355,"district_name":"สังกัดสำนักงานเขตพื้นที่การศึกษามัธยมศึกษา เขต 1","phone":"0 2467 0532","website":"241"}, 
 {"school_id":10010012,"name":"โรงเรียนอนุบาลสามเสน","lat":13.788760,"lng":100.537434,"district_name":"สังกัดสำนักงานเขตพื้นที่การศึกษาประถมศึกษากรุงเทพมหานคร3","phone":"0 2279 0415","website":"www.abss.ac.th/"}, 
 {"school_id":10010015,"name":"โรงเรียนสายน้ำทิพย์","lat":13.727922,"lng":100.565432,"district_name":"สังกัดสำนักงานเขตพื้นที่การศึกษาประถมศึกษากรุงเทพมหานคร3","phone":"0 2258 2232","website":"www.sainamtip.ac.th"}, 
 {"school_id":10012011,"name":"โรงเรียนวัดน้อยนพคุณ","lat":13.784454,"lng":100.520536,"district_name":"สังกัดสำนักงานเขตพื้นที่การศึกษามัธยมศึกษา เขต 1","phone":"0 2243 5305","website":"www.wnk.ac.th"}, 
 {"school_id":10032037,"name":"โรงเรียนอิสลามวิทยาลัยแห่งประเทศไทย","lat":13.637992,"lng":100.502254,"district_name":"สังกัดสำนักงานเขตพื้นที่การศึกษามัธยมศึกษา เขต 1","phone":"0 2426 1396","website":"www.islamiccollege.ac.th/"}, 
 {"school_id":10022024,"name":"โรงเรียนลาดปลาเค้าพิทยาคม","lat":13.845830,"lng":100.604386,"district_name":"สังกัดสำนักงานเขตพื้นที่การศึกษามัธยมศึกษา เขต 2","phone":"0 2570 7343","website":"www.lpp.ac.th/"}, 
 {"school_id":10012003,"name":"โรงเรียนสตรีวัดมหาพฤฒาราม ในพระบรมราชินู","lat":13.732497,"lng":100.516021,"district_name":"สังกัดสำนักงานเขตพื้นที่การศึกษามัธยมศึกษา เขต 2","phone":"0 2236 5755","website":"www.mps.ac.th"}, 
 {"school_id":10012001,"name":"โรงเรียนสตรีวิทยา","lat":13.758197,"lng":100.501021,"district_name":"สังกัดสำนักงานเขตพื้นที่การศึกษามัธยมศึกษา เขต 1","phone":"0 2281 6505","website":"http://satriwit.ac.th/home/"}, 
 {"school_id":10030005,"name":"โรงเรียนประถมทวีธาภิเศก","lat":13.744691,"lng":100.487868,"district_name":"สังกัดสำนักงานเขตพื้นที่การศึกษาประถมศึกษากรุงเทพมหานคร3","phone":"0 2465 3010","website":"www.facebook.com/โรงเรียนประถมทวีธาภิเศก-สทภ-840883105926352/"}, 
 {"school_id":10032042,"name":"โรงเรียนบางมดวิทยา(สีสุกหวาดจวนอุปถัมภ์)","lat":13.681097,"lng":100.465271,"district_name":"สังกัดสำนักงานเขตพื้นที่การศึกษามัธยมศึกษา เขต 1","phone":"0 2468 3877","website":"www.bangmodwittaya.ac.th/mainpage"}, 
 {"school_id":10022031,"name":"โรงเรียนนวมินทราชินูทิศ เตรียมอุดมศึกษาน","lat":13.755574,"lng":100.680464,"district_name":"สังกัดสำนักงานเขตพื้นที่การศึกษามัธยมศึกษา เขต 2","phone":"0 2372 0228","website":"www.ntun.ac.th/"}, 
 {"school_id":10032005,"name":"โรงเรียนวัดประดู่ในทรงธรรม","lat":13.724815,"lng":100.470859,"district_name":"สังกัดสำนักงานเขตพื้นที่การศึกษามัธยมศึกษา เขต 1","phone":"0 2457 9830","website":"www.pradoonai.ac.th/page/"}, 
 {"school_id":10030006,"name":"โรงเรียนวัดช่างเหล็ก","lat":13.773692,"lng":100.454138,"district_name":"สังกัดสำนักงานเขตพื้นที่การศึกษาประถมศึกษากรุงเทพมหานคร3","phone":"0 2424 7045","website":"https://www.facebook.com/watchanglek.bkk/"}, 
 {"school_id":10012027,"name":"โรงเรียนสุรศักดิ์มนตรี","lat":13.776090,"lng":100.555672,"district_name":"สังกัดสำนักงานเขตพื้นที่การศึกษามัธยมศึกษา เขต 2","phone":"0 2277 0663","website":"www.surasak.ac.th"}, 
 {"school_id":10032033,"name":"โรงเรียนราชวินิตบางแคปานขำ","lat":13.723357,"lng":100.378847,"district_name":"สังกัดสำนักงานเขตพื้นที่การศึกษามัธยมศึกษา เขต 1","phone":"0 2421 0119","website":"www.rnp.ac.th/mainpage"}, 
 {"school_id":10022034,"name":"โรงเรียนนวมินทราชินูทิศ เบญจมราชาลัย","lat":13.890873,"lng":100.693684,"district_name":"สังกัดสำนักงานเขตพื้นที่การศึกษามัธยมศึกษา เขต 2","phone":"0 2181 1101","website":"www.nbr.ac.th/"}, 
 {"school_id":10012013,"name":"โรงเรียนราชวินิต มัธยม","lat":13.762551,"lng":100.514763,"district_name":"สังกัดสำนักงานเขตพื้นที่การศึกษามัธยมศึกษา เขต 1","phone":"0 2282 0117","website":"www.rnm.ac.th"}, 
 {"school_id":10032032,"name":"โรงเรียนปัญญาวรคุณ","lat":13.693252,"lng":100.392225,"district_name":"สังกัดสำนักงานเขตพื้นที่การศึกษามัธยมศึกษา เขต 1","phone":"0 2413 1657","website":"www.pws.ac.th"}, 
 {"school_id":10022013,"name":"โรงเรียนเตรียมอุดมศึกษาพัฒนาการ รัชดา","lat":13.773070,"lng":100.574342,"district_name":"สังกัดสำนักงานเขตพื้นที่การศึกษามัธยมศึกษา เขต 2","phone":"0 2645 2703-4","website":"www.tupr.ac.th/"}, 
 {"school_id":10030002,"name":"โรงเรียนวัดเจ้ามูล","lat":13.736919,"lng":100.472488,"district_name":"สังกัดสำนักงานเขตพื้นที่การศึกษาประถมศึกษากรุงเทพมหานคร3","phone":"0 2411 2112","website":"www.watchaomool.ac.th/main.html"}, 
 {"school_id":10022014,"name":"โรงเรียนนวมินทราชูทิศ กรุงเทพมหานคร","lat":13.829243,"lng":100.650698,"district_name":"สังกัดสำนักงานเขตพื้นที่การศึกษามัธยมศึกษา เขต 2","phone":"0 2944 1225-6","website":"www.nmk.ac.th/"}, 
 {"school_id":10012041,"name":"โรงเรียนมักกะสันพิทยา","lat":13.749109,"lng":100.552719,"district_name":"สังกัดสำนักงานเขตพื้นที่การศึกษามัธยมศึกษา เขต 1","phone":"0 2252 8642","website":"www.makkasan.ac.th/"}, 
 {"school_id":10030004,"name":"โรงเรียนวัดหงส์รัตนาราม","lat":13.740368,"lng":100.486639,"district_name":"สังกัดสำนักงานเขตพื้นที่การศึกษาประถมศึกษากรุงเทพมหานคร3","phone":"0 2466 7937","website":"wathongschool.ac.th/"}, 
 {"school_id":10020003,"name":"โรงเรียนพิบูลอุปถัมภ์","lat":13.797023,"lng":100.588412,"district_name":"สังกัดสำนักงานเขตพื้นที่การศึกษาประถมศึกษากรุงเทพมหานคร3","phone":"0 2511 4049","website":"www.facebook.com/pg/PiboolUppathamSchool/about/?ref=page_internal"}, 
 {"school_id":10032002,"name":"โรงเรียนทวีธาภิเศก","lat":13.745707,"lng":100.482659,"district_name":"สังกัดสำนักงานเขตพื้นที่การศึกษามัธยมศึกษา เขต 1","phone":"0 2465 5156","website":"www.taweethapisek.ac.th"}, 
 {"school_id":10032028,"name":"โรงเรียนบางปะกอกวิทยาคม","lat":13.683598,"lng":100.494519,"district_name":"สังกัดสำนักงานเขตพื้นที่การศึกษามัธยมศึกษา เขต 1","phone":"0 2428 8980-4","website":"www.bpk.ac.th/"}, 
 {"school_id":10032038,"name":"โรงเรียนศึกษานารีวิทยา","lat":13.633579,"lng":100.364755,"district_name":"สังกัดสำนักงานเขตพื้นที่การศึกษามัธยมศึกษา เขต 1","phone":"0 2450 3501-4","website":"www.snws.ac.th/homepage"}, 
 {"school_id":10010013,"name":"โรงเรียนทุ่งมหาเมฆ","lat":13.714042,"lng":100.530040,"district_name":"สังกัดสำนักงานเขตพื้นที่การศึกษาประถมศึกษากรุงเทพมหานคร3","phone":"0 2286 1748","website":"www.tms.ac.th/"}, 
 {"school_id":10022028,"name":"โรงเรียนฤทธิยะวรรณาลัย 2","lat":13.913754,"lng":100.625303,"district_name":"สังกัดสำนักงานเขตพื้นที่การศึกษามัธยมศึกษา เขต 2","phone":"0 2536 0017","website":"http://rw2.ac.th/"}, 
 {"school_id":10010018,"name":"โรงเรียนอนุบาลพิบูลเวศม์","lat":13.720669,"lng":100.592844,"district_name":"สังกัดสำนักงานเขตพื้นที่การศึกษาประถมศึกษากรุงเทพมหานคร3","phone":"0 2391 2625","website":"www.pbw.ac.th/pbw.hml"}, 
 {"school_id":10022010,"name":"โรงเรียนเทพศิรินทร์ร่มเกล้า","lat":13.746222,"lng":100.757899,"district_name":"สังกัดสำนักงานเขตพื้นที่การศึกษามัธยมศึกษา เขต 2","phone":"0 2737 8919 -20","website":"www.dsr.ac.th/"}, 
 {"school_id":10012038,"name":"โรงเรียนสายน้ำผึ้ง ในพระอุปถัมภ์ฯ","lat":13.727171,"lng":100.564142,"district_name":"สังกัดสำนักงานเขตพื้นที่การศึกษามัธยมศึกษา เขต 2","phone":"0 2258 2234","website":"www.sainampeung.ac.th/"}, 
 {"school_id":10032001,"name":"โรงเรียนศึกษานารี","lat":13.735109,"lng":100.495390,"district_name":"สังกัดสำนักงานเขตพื้นที่การศึกษามัธยมศึกษา เขต 1","phone":"0 2466 7223","website":"www.snr.ac.th/"}, 
 {"school_id":10030003,"name":"โรงเรียนวัดสังข์กระจาย (แจ่มวิชาสอน)","lat":13.731976,"lng":100.485680,"district_name":"สังกัดสำนักงานเขตพื้นที่การศึกษาประถมศึกษากรุงเทพมหานคร3","phone":"0 2465 0397","website":"sangkrajay.ac.th/"}, 
 {"school_id":10012016,"name":"โรงเรียนเศรษฐเสถียร ในพระราชูปถัมภ์","lat":13.782000,"lng":100.522712,"district_name":"สังกัดสำนักบริหารการศึกษาพิเศษ4","phone":"0 2241 4455","website":"www.setsatian.ac.th"}, 
 {"school_id":10022019,"name":"โรงเรียนราชดำริ","lat":13.682261,"lng":100.679249,"district_name":"สังกัดสำนักงานเขตพื้นที่การศึกษามัธยมศึกษา เขต 2","phone":"0 2337 4429","website":"http://schoolweb.eduzones.com/rdschool/"}, 
 {"school_id":10010006,"name":"โรงเรียนวัดพลับพลาชัย","lat":13.746069,"lng":100.512437,"district_name":"สังกัดสำนักงานเขตพื้นที่การศึกษาประถมศึกษากรุงเทพมหานคร3","phone":"0 2224 7635","website":"www.facebook.com/chawalit.wichadee"}, 
 {"school_id":10022018,"name":"โรงเรียนสารวิทยา","lat":13.851121,"lng":100.584385,"district_name":"สังกัดสำนักงานเขตพื้นที่การศึกษามัธยมศึกษา เขต 2","phone":"0 2579 3646","website":"www.srv.ac.th"}, 
 {"school_id":10032016,"name":"โรงเรียนมัธยมวัดดุสิตาราม","lat":13.763214,"lng":100.489040,"district_name":"สังกัดสำนักงานเขตพื้นที่การศึกษามัธยมศึกษา เขต 1","phone":"0 2424 8870","website":"www.dusitaram.ac.th/"}, 
 {"school_id":10022023,"name":"โรงเรียนดอนเมืองจาตุรจินดา","lat":13.914891,"lng":100.592767,"district_name":"สังกัดสำนักงานเขตพื้นที่การศึกษามัธยมศึกษา เขต 2","phone":"02 565 3725","website":"www.dmj.ac.th/"}, 
 {"school_id":10012040,"name":"โรงเรียนสันติราษฎร์วิทยาลัย","lat":13.757986,"lng":100.532470,"district_name":"สังกัดสำนักงานเขตพื้นที่การศึกษามัธยมศึกษา เขต 1","phone":"0 2354 4990","website":"https://www.str.ac.th/"}, 
 {"school_id":10012028,"name":"โรงเรียนเตรียมอุดมศึกษาน้อมเกล้ากุนนที","lat":13.782320,"lng":100.572443,"district_name":"สังกัดสำนักงานเขตพื้นที่การศึกษามัธยมศึกษา เขต 2","phone":"0 2275 6661-2","website":"www.kunnatee.ac.th"}, 
 {"school_id":10022011,"name":"โรงเรียนรัตนโกสินทร์สมโภชลาดกระบัง","lat":13.759403,"lng":100.730646,"district_name":"สังกัดสำนักงานเขตพื้นที่การศึกษามัธยมศึกษา เขต 2","phone":"0 2543 9521","website":"www.rsl.ac.th/"}, 
 {"school_id":10032034,"name":"โรงเรียนทีปังกรวิทยาพัฒน์ (ทวีวัฒนา)","lat":13.750471,"lng":100.348821,"district_name":"สังกัดสำนักงานเขตพื้นที่การศึกษามัธยมศึกษา เขต 1","phone":"0 2806 7492","website":"www.dipangkorntawee.ac.th"}, 
 {"school_id":10012023,"name":"โรงเรียนนนทรีวิทยา","lat":13.706708,"lng":100.546671,"district_name":"สังกัดสำนักงานเขตพื้นที่การศึกษามัธยมศึกษา เขต 2","phone":"0 2286 2105","website":"www.nonsi.ac.th"}, 
 {"school_id":10012008,"name":"โรงเรียนโยธินบูรณะ","lat":13.796676,"lng":100.520366,"district_name":"สังกัดสำนักงานเขตพื้นที่การศึกษามัธยมศึกษา เขต 1","phone":"0 2241 2630","website":"www.yothinburana.ac.th"}, 
 {"school_id":10022021,"name":"โรงเรียนดอนเมืองทหารอากาศบำรุง","lat":13.931337,"lng":100.605863,"district_name":"สังกัดสำนักงานเขตพื้นที่การศึกษามัธยมศึกษา เขต 2","phone":"0 2566 2718","website":"www.donschool.ac.th/"}, 
 {"school_id":10022008,"name":"โรงเรียนมัธยมวัดบึงทองหลาง","lat":13.794311,"lng":100.625796,"district_name":"สังกัดสำนักงานเขตพื้นที่การศึกษามัธยมศึกษา เขต 2","phone":"0 2376 0463","website":"www.thonglang.ac.th/"}, 
 {"school_id":10022035,"name":"โรงเรียนนวมินทราชินูทิศ สตรีวิทยา 2","lat":13.901711,"lng":100.741080,"district_name":"สังกัดสำนักงานเขตพื้นที่การศึกษามัธยมศึกษา เขต 2","phone":"0 2993 2353","website":"www.nmrsw2.ac.th/"}, 
 {"school_id":10012026,"name":"โรงเรียนสามเสนวิทยาลัย","lat":13.784562,"lng":100.533679,"district_name":"สังกัดสำนักงานเขตพื้นที่การศึกษามัธยมศึกษา เขต 1","phone":"0 2278 2997","website":"www.samsenwit.ac.th"}, 
 {"school_id":10032004,"name":"โรงเรียนวัดอินทาราม","lat":13.722756,"lng":100.482700,"district_name":"สังกัดสำนักงานเขตพื้นที่การศึกษามัธยมศึกษา เขต 1","phone":"0 2465 3310","website":"https://www.ir.ac.th/"}, 
 {"school_id":10032015,"name":"โรงเรียนสุวรรณารามวิทยาคม","lat":13.762399,"lng":100.475801,"district_name":"สังกัดสำนักงานเขตพื้นที่การศึกษามัธยมศึกษา เขต 1","phone":"0 2424 1671","website":"www.suwan.ac.th/"}, 
 {"school_id":10010001,"name":"โรงเรียนวัดชนะสงคราม","lat":13.760223,"lng":100.494930,"district_name":"สังกัดสำนักงานเขตพื้นที่การศึกษาประถมศึกษากรุงเทพมหานคร3","phone":"0 2043 6548","website":"www.watchanasongkram.ac.th/"}, 
 {"school_id":10032027,"name":"โรงเรียนมัธยมวัดหนองแขม(สหราษฎร์บูรณะ)","lat":13.675455,"lng":100.339221,"district_name":"สังกัดสำนักงานเขตพื้นที่การศึกษามัธยมศึกษา เขต 1","phone":"0 2429 3714","website":"www.watnongkhamschool.com/produts.html"}, 
 {"school_id":10030007,"name":"โรงเรียนวัดอมรินทราราม","lat":13.759154,"lng":100.483327,"district_name":"สังกัดสำนักงานเขตพื้นที่การศึกษาประถมศึกษากรุงเทพมหานคร3","phone":"0 2418 0927","website":"www.amarin.ac.th/index1.htm"}, 
 {"school_id":10020006,"name":"โรงเรียนวัดมหาบุศย์ (พิทักษ์ถาวรคุณ)","lat":13.713896,"lng":100.607175,"district_name":"สังกัดสำนักงานเขตพื้นที่การศึกษาประถมศึกษากรุงเทพมหานคร3","phone":"0 2311 1483","website":"www.mahabud.ac.th"}, 
 {"school_id":10012034,"name":"โรงเรียนศีลาจารพิพัฒน์","lat":13.816935,"lng":100.528933,"district_name":"สังกัดสำนักงานเขตพื้นที่การศึกษามัธยมศึกษา เขต 1","phone":"0 2587 2934","website":"www.silacharn.ac.th/"}, 
 {"school_id":10010010,"name":"โรงเรียนมหาวีรานุวัตร","lat":13.738166,"lng":100.514329,"district_name":"สังกัดสำนักงานเขตพื้นที่การศึกษาประถมศึกษากรุงเทพมหานคร3","phone":"0 2221 8936","website":"www.mahawee.ac.th"}, 
 {"school_id":10010011,"name":"โรงเรียนวัดชัยชนะสงคราม (วัดตึก)","lat":13.744068,"lng":100.505573,"district_name":"สังกัดสำนักงานเขตพื้นที่การศึกษาประถมศึกษากรุงเทพมหานคร3","phone":"0 2221 3879","website":"www.facebook.com/wattukschool/"}, 
 {"school_id":10012032,"name":"โรงเรียนสตรีศรีสุริโยทัย","lat":13.715433,"lng":100.515662,"district_name":"สังกัดสำนักงานเขตพื้นที่การศึกษามัธยมศึกษา เขต 2","phone":"0 2211 0383","website":"www.suriyothai.ac.th"}, 
 {"school_id":10012014,"name":"โรงเรียนมัธยมวัดมกุฏกษัตริย์","lat":13.764666,"lng":100.507471,"district_name":"สังกัดสำนักงานเขตพื้นที่การศึกษามัธยมศึกษา เขต 1","phone":"0 2281 3535","website":"www.makut.ac.th"}, 
 {"school_id":10020001,"name":"โรงเรียนวัดอุทัยธาราม","lat":13.749581,"lng":100.569580,"district_name":"สังกัดสำนักงานเขตพื้นที่การศึกษาประถมศึกษากรุงเทพมหานคร3","phone":"0 2252 7011","website":"www.facebook.com/โรงเรียนวัดอุทัยธาราม-1450441868538063/"}, 
 {"school_id":10012025,"name":"โรงเรียนไตรมิตรวิทยาลัย","lat":13.738540,"lng":100.513795,"district_name":"สังกัดสำนักงานเขตพื้นที่การศึกษามัธยมศึกษา เขต 1","phone":"0 2623 0904","website":"www.tmc.ac.th"}, 
 {"school_id":10032020,"name":"โรงเรียนรัตนโกสินทร์สมโภชบางขุนเทียน","lat":13.646313,"lng":100.420004,"district_name":"สังกัดสำนักงานเขตพื้นที่การศึกษามัธยมศึกษา เขต 1","phone":"0 2415 2312","website":"www.rst.ac.th/cms"}, 
 {"school_id":10032022,"name":"โรงเรียนวัดนวลนรดิศ","lat":13.723836,"lng":100.466821,"district_name":"สังกัดสำนักงานเขตพื้นที่การศึกษามัธยมศึกษา เขต 1","phone":"0 2467 2609","website":"www.nd.ac.th/"}, 
 {"school_id":10022039,"name":"โรงเรียนเตรียมอุดมศึกษา สุวินทวงศ์","lat":13.793671,"lng":100.860118,"district_name":"สังกัดสำนักงานเขตพื้นที่การศึกษามัธยมศึกษา เขต 2","phone":"0 2175 4824 -9","website":"www.tusw.ac.th/mainpage"}, 
 {"school_id":10010017,"name":"โรงเรียนพญาไท","lat":13.759652,"lng":100.528967,"district_name":"สังกัดสำนักงานเขตพื้นที่การศึกษาประถมศึกษากรุงเทพมหานคร3","phone":"0 2354 5251","website":"www.phyathai.ac.th"}, 
 {"school_id":10022026,"name":"โรงเรียนราชวินิตบางเขน","lat":13.858463,"lng":100.554461,"district_name":"สังกัดสำนักงานเขตพื้นที่การศึกษามัธยมศึกษา เขต 2","phone":"0 2523 7612","website":"www.rvb.ac.th/"}, 
 {"school_id":10012037,"name":"โรงเรียนปทุมคงคา","lat":13.718185,"lng":100.581242,"district_name":"สังกัดสำนักงานเขตพื้นที่การศึกษามัธยมศึกษา เขต 2","phone":"0 2392 2510","website":"www.patumkongka.ac.th/"}, 
 {"school_id":10032018,"name":"โรงเรียนสวนอนันต์","lat":13.751661,"lng":100.475752,"district_name":"สังกัดสำนักงานเขตพื้นที่การศึกษามัธยมศึกษา เขต 1","phone":"0 2412 7083","website":"www.suananun.ac.th"}, 
 {"school_id":10020004,"name":"โรงเรียนบางบัว (เพ่งตั้งตรงจิตรวิทยาคาร)","lat":13.856801,"lng":100.585182,"district_name":"สังกัดสำนักงานเขตพื้นที่การศึกษาประถมศึกษากรุงเทพมหานคร3","phone":"0 2579 1941","website":"www.bbpt.ac.th"}, 
 {"school_id":10022041,"name":"โรงเรียนเตรียมอุดมศึกษาพัฒนาการสุวรรณภูม","lat":13.777008,"lng":100.764010,"district_name":"สังกัดสำนักงานเขตพื้นที่การศึกษามัธยมศึกษา เขต 2","phone":"0 2321 0433","website":"www.tupp.ac.th/"}, 
 {"school_id":10022029,"name":"โรงเรียนศรีพฤฒา","lat":13.744782,"lng":100.695070,"district_name":"สังกัดสำนักงานเขตพื้นที่การศึกษามัธยมศึกษา เขต 2","phone":"0 2368 2148","website":"www.sts.ac.th/"}, 
 {"school_id":10012012,"name":"โรงเรียนเบญจมราชาลัย ในพระราชอุปถัมภ์","lat":13.750958,"lng":100.502214,"district_name":"สังกัดสำนักงานเขตพื้นที่การศึกษามัธยมศึกษา เขต 1","phone":"0 2222 4887","website":"www.br.ac.th"}, 
 {"school_id":10012020,"name":"โรงเรียนสายปัญญา ในพระราชินูปถัมภ์","lat":13.743214,"lng":100.515184,"district_name":"สังกัดสำนักงานเขตพื้นที่การศึกษามัธยมศึกษา เขต 1","phone":"0 2221 0196","website":"www.saipanya.ac.th"}, 
 {"school_id":10032024,"name":"โรงเรียนสตรีวัดอัปสรสวรรค์","lat":13.721016,"lng":100.469809,"district_name":"สังกัดสำนักงานเขตพื้นที่การศึกษามัธยมศึกษา เขต 1","phone":"0 2457 0505","website":"www.absornsawan.ac.th/home.html"}, 
 {"school_id":10030009,"name":"โรงเรียนราชวินิตประถมบางแค","lat":13.716276,"lng":100.422393,"district_name":"สังกัดสำนักงานเขตพื้นที่การศึกษาประถมศึกษากรุงเทพมหานคร3","phone":"0 2413 0607","website":"www.rnk.ac.th/"}, 
 {"school_id":10020008,"name":"โรงเรียนพระยาประเสริฐสุนทราศรัย","lat":13.764564,"lng":100.609407,"district_name":"สังกัดสำนักงานเขตพื้นที่การศึกษาประถมศึกษากรุงเทพมหานคร3","phone":"0 2539 8197","website":"www.prayaprasert.org/"}, 
 {"school_id":10010002,"name":"โรงเรียนอนุบาลวัดปรินายก","lat":13.757609,"lng":100.505548,"district_name":"สังกัดสำนักงานเขตพื้นที่การศึกษาประถมศึกษากรุงเทพมหานคร3","phone":"0 2281 6104","website":"www.parinayok.ac.th/"}, 
 {"school_id":10012033,"name":"โรงเรียนโสตศึกษาทุ่งมหาเมฆ","lat":13.715882,"lng":100.535137,"district_name":"สังกัดสำนักบริหารการศึกษาพิเศษ4","phone":"0 2286 0733","website":"www.sotthung.net/"}, 
 {"school_id":10032003,"name":"โรงเรียนสุวรรณพลับพลาพิทยาคม","lat":13.755789,"lng":100.448775,"district_name":"สังกัดสำนักงานเขตพื้นที่การศึกษามัธยมศึกษา เขต 1","phone":"0 2418 2538","website":"www.suwanplubpla.ac.th/"}, 
 {"school_id":10032043,"name":"โรงเรียนสวนกุหลาบวิทยาลัย ธนบุรี","lat":13.626372,"lng":100.454332,"district_name":"สังกัดสำนักงานเขตพื้นที่การศึกษามัธยมศึกษา เขต 1","phone":"0 2496 8322","website":"www.sk-thonburi.ac.th/"}, 
 {"school_id":10012043,"name":"โรงเรียนสิริรัตนาธร","lat":13.675774,"lng":100.624461,"district_name":"สังกัดสำนักงานเขตพื้นที่การศึกษามัธยมศึกษา เขต 2","phone":"0 2396 1984-5","website":"www.srt.ac.th/index1.html"}, 
 {"school_id":10022030,"name":"โรงเรียนเตรียมอุดมศึกษาน้อมเกล้า","lat":13.784791,"lng":100.691853,"district_name":"สังกัดสำนักงานเขตพื้นที่การศึกษามัธยมศึกษา เขต 2","phone":"0 2373 1473","website":"www.tun.ac.th/"}, 
 {"school_id":10032019,"name":"โรงเรียนพิทยาลงกรณ์พิทยาคม","lat":13.528265,"lng":100.418063,"district_name":"สังกัดสำนักงานเขตพื้นที่การศึกษามัธยมศึกษา เขต 1","phone":"0 2452 4740","website":"www.pkpk.ac.th"}, 
 {"school_id":10022009,"name":"โรงเรียนพรตพิทยพยัต","lat":13.725969,"lng":100.785345,"district_name":"สังกัดสำนักงานเขตพื้นที่การศึกษามัธยมศึกษา เขต 2","phone":"0 2326 4050","website":"www.prot.ac.th/mainpage"}, 
 {"school_id":10032039,"name":"โรงเรียนนวลนรดิศวิทยาคม รัช6งคลาภิเษก","lat":13.645605,"lng":100.346032,"district_name":"สังกัดสำนักงานเขตพื้นที่การศึกษามัธยมศึกษา เขต 1","phone":"0 2429 3740","website":"www.ndr.ac.th"}, 
 {"school_id":10032008,"name":"โรงเรียนฤทธิณรงค์รอน","lat":13.730260,"lng":100.485530,"district_name":"สังกัดสำนักงานเขตพื้นที่การศึกษามัธยมศึกษา เขต 1","phone":"0 2465 4580","website":"www.nr.ac.th/"}, 
 {"school_id":10010009,"name":"โรงเรียนวัดด่าน","lat":13.672441,"lng":100.540651,"district_name":"สังกัดสำนักงานเขตพื้นที่การศึกษาประถมศึกษากรุงเทพมหานคร3","phone":"0 2284 3047","website":"www.watdanschool.com"}, 
 {"school_id":10032021,"name":"โรงเรียนทวีธาภิเศก บางขุนเทียน","lat":13.582123,"lng":100.419796,"district_name":"สังกัดสำนักงานเขตพื้นที่การศึกษามัธยมศึกษา เขต 1","phone":"0 2849 3310","website":"www.tpt.ac.th/tpt/index.html"}, 
 {"school_id":10032006,"name":"โรงเรียนทีปังกรวิทยาพัฒน์(วัดน้อยใน)","lat":13.791874,"lng":100.465729,"district_name":"สังกัดสำนักงานเขตพื้นที่การศึกษามัธยมศึกษา เขต 1","phone":"0 2424 7882","website":"www.dpwatnoinai.ac.th"}, 
 {"school_id":10032041,"name":"โรงเรียนวัดราชโอรส","lat":13.702865,"lng":100.463640,"district_name":"สังกัดสำนักงานเขตพื้นที่การศึกษามัธยมศึกษา เขต 1","phone":"0 2415 0621","website":"www.ro.ac.th/"}, 
 {"school_id":10022002,"name":"โรงเรียนบางกะปิ","lat":13.771444,"lng":100.651503,"district_name":"สังกัดสำนักงานเขตพื้นที่การศึกษามัธยมศึกษา เขต 2","phone":"0 2377 6707","website":"bangkapi.ac.th/"}, 
 {"school_id":10032010,"name":"โรงเรียนธนบุรีวรเทพีพลารักษ์","lat":13.721542,"lng":100.475490,"district_name":"สังกัดสำนักงานเขตพื้นที่การศึกษามัธยมศึกษา เขต 1","phone":"0 2465 7753","website":"www.thonburee.ac.th/"}, 
 {"school_id":10022027,"name":"โรงเรียนฤทธิยะวรรณาลัย","lat":13.906490,"lng":100.619386,"district_name":"สังกัดสำนักงานเขตพื้นที่การศึกษามัธยมศึกษา เขต 2","phone":"0 2523 3402 -5","website":"http://rittiya.ac.th/"}, 
 {"school_id":10032017,"name":"โรงเรียนมัธยมวัดนายโรง","lat":13.775077,"lng":100.472088,"district_name":"สังกัดสำนักงานเขตพื้นที่การศึกษามัธยมศึกษา เขต 1","phone":"0 2424 1826","website":"www.nairong.ac.th/"}, 
 {"school_id":10012021,"name":"โรงเรียนพระโขนงพิทยาลัย","lat":13.694587,"lng":100.590671,"district_name":"สังกัดสำนักงานเขตพื้นที่การศึกษามัธยมศึกษา เขต 2","phone":"0 2311 1786","website":"www.prakanong.ac.th/"}, 
 {"school_id":10012017,"name":"โรงเรียนเตรียมอุดมศึกษา","lat":13.740405,"lng":100.530812,"district_name":"สังกัดสำนักงานเขตพื้นที่การศึกษามัธยมศึกษา เขต 1","phone":"0 2254 0287-8","website":"www.triamudom.ac.th/"}, 
 {"school_id":10032013,"name":"โรงเรียนชิโนรสวิทยาลัย","lat":13.748225,"lng":100.478875,"district_name":"สังกัดสำนักงานเขตพื้นที่การศึกษามัธยมศึกษา เขต 1","phone":"0 2866 1882","website":"www.chinorot.ac.th/"}, 
 {"school_id":10012029,"name":"โรงเรียนพิบูลประชาสรรค์","lat":13.763669,"lng":100.550170,"district_name":"สังกัดสำนักบริหารการศึกษาพิเศษ4","phone":"0 2245 0448","website":"www.pbps.ac.th/"}, 
 {"school_id":10022033,"name":"โรงเรียนนวมินทราชินูทิศ บดินทรเดชา","lat":13.791812,"lng":100.605949,"district_name":"สังกัดสำนักงานเขตพื้นที่การศึกษามัธยมศึกษา เขต 2","phone":"0 2530 2326","website":"www.bodin3.ac.th/"}, 
 {"school_id":10020007,"name":"โรงเรียนไทยรัฐวิทยา 75 เฉลิมพระเกียรติ","lat":13.891360,"lng":100.646242,"district_name":"สังกัดสำนักงานเขตพื้นที่การศึกษาประถมศึกษากรุงเทพมหานคร3","phone":"0 2533 8660","website":"www.thairathwittaya75.com/home.html"}, 
 {"school_id":10022006,"name":"โรงเรียนเศรษฐบุตรบำเพ็ญ","lat":13.814410,"lng":100.714033,"district_name":"สังกัดสำนักงานเขตพื้นที่การศึกษามัธยมศึกษา เขต 2","phone":"0 2517 5026","website":"www.sbp.ac.th/"}, 
 {"school_id":10012022,"name":"โรงเรียนวชิรธรรมสาธิต","lat":13.691301,"lng":100.633017,"district_name":"สังกัดสำนักงานเขตพื้นที่การศึกษามัธยมศึกษา เขต 2","phone":"0 2746 2833","website":"www.wt.ac.th/"}, 
 {"school_id":10022022,"name":"โรงเรียนสีกัน (วัฒนานันท์อุปถัมภ์)","lat":13.924517,"lng":100.594138,"district_name":"สังกัดสำนักงานเขตพื้นที่การศึกษามัธยมศึกษา เขต 2","phone":"0 2566 1456","website":"www.seekan.ac.th/"}, 
 {"school_id":10020005,"name":"โรงเรียนบ้านหนองบอน (นัยนานนท์อนุสรณ์)","lat":13.677067,"lng":100.658571,"district_name":"สังกัดสำนักงานเขตพื้นที่การศึกษาประถมศึกษากรุงเทพมหานคร3","phone":"0 2393 0308","website":"www.bannongbon.ac.th"}, 
 {"school_id":10012004,"name":"โรงเรียนสวนกุหลาบวิทยาลัย","lat":13.742856,"lng":100.498204,"district_name":"สังกัดสำนักงานเขตพื้นที่การศึกษามัธยมศึกษา เขต 1","phone":"0 2221 6701","website":"www.sk.ac.th"}, 
 {"school_id":10012031,"name":"โรงเรียนยานนาเวศวิทยาคม","lat":13.703197,"lng":100.528222,"district_name":"สังกัดสำนักงานเขตพื้นที่การศึกษามัธยมศึกษา เขต 2","phone":"0 2211 0943","website":"www.yn.ac.th"}, 
 {"school_id":10022005,"name":"โรงเรียนเทพลีลา","lat":13.758677,"lng":100.615266,"district_name":"สังกัดสำนักงานเขตพื้นที่การศึกษามัธยมศึกษา เขต 2","phone":"0 2318 0625","website":"www.tepleela.ac.th/"}, 
 {"school_id":10032014,"name":"โรงเรียนสตรีวัดระฆัง","lat":13.751868,"lng":100.486314,"district_name":"สังกัดสำนักงานเขตพื้นที่การศึกษามัธยมศึกษา เขต 1","phone":"0 2412 9103","website":"www.sr.ac.th/"}, 
 {"school_id":10022012,"name":"โรงเรียนจันทร์หุ่นบำเพ็ญ","lat":13.779275,"lng":100.584889,"district_name":"สังกัดสำนักงานเขตพื้นที่การศึกษามัธยมศึกษา เขต 2","phone":"0 2645 2703-4","website":"www.chanhun.ac.th/"}, 
 {"school_id":10032029,"name":"โรงเรียนแจงร้อนวิทยา","lat":13.675368,"lng":100.518918,"district_name":"สังกัดสำนักงานเขตพื้นที่การศึกษามัธยมศึกษา เขต 1","phone":"0 2462 5422","website":"www.chaengron.ac.th/"}, 
 {"school_id":10012005,"name":"โรงเรียนวัดราชาธิวาส","lat":13.774872,"lng":100.504456,"district_name":"สังกัดสำนักงานเขตพื้นที่การศึกษามัธยมศึกษา เขต 1","phone":"0 2266 8721","website":"https://sites.google.com/site/rajaschoolsite/home"}, 
 {"school_id":10030001,"name":"โรงเรียนวัดประยุรวงศาวาส","lat":13.737119,"lng":100.494719,"district_name":"สังกัดสำนักงานเขตพื้นที่การศึกษาประถมศึกษากรุงเทพมหานคร3","phone":"0 2465 2860","website":"www.swy.ac.th/"}, 
 {"school_id":10032026,"name":"โรงเรียนจันทร์ประดิษฐารามวิทยาคม","lat":13.716611,"lng":100.442579,"district_name":"สังกัดสำนักงานเขตพื้นที่การศึกษามัธยมศึกษา เขต 1","phone":"0 2869 6465","website":"www.chanpradit.ac.th"}, 
 {"school_id":10012030,"name":"โรงเรียนวัดสุทธิวราราม","lat":13.712798,"lng":100.511901,"district_name":"สังกัดสำนักงานเขตพื้นที่การศึกษามัธยมศึกษา เขต 2","phone":"0 2211 4192","website":"www.suthi.ac.th"}, 
 {"school_id":10022001,"name":"โรงเรียนรัตนโกสินทร์สมโภช บางเขน","lat":13.871196,"lng":100.644740,"district_name":"สังกัดสำนักงานเขตพื้นที่การศึกษามัธยมศึกษา เขต 2","phone":"0 2948 0621","website":"www.rsb.ac.th/mainpage"}]